park_id,osm_type,osm_id,name,latitude,longitude,state,addr:housenumber,addr:street,addr:city,addr:postcode,website,phone,email,tourism,source_primary,brand,operator,operator_brand,operator_company,operator_source_url,source_secondary,nsw_parcels_count,nsw_parcel_ids,nsw_area_sum_sqm,notes,land_parcel_ids,land_area_sqm,land_area_source,nsw_checked,qld_parcels_count,qld_checked,category,confidence,needs_review,date_collected_utc
osm:node:2924831639,node,2924831639.0,Camp Ridgeway,-17.4991805,138.1111068,QLD,,,,,,,,camp_site,osm_overpass,,,,,,,0,,,,1CP887914,2080000000.0,qld_dcdb,0,0,1,camp,0.6,0,2025-09-12T11:05:04.539964
osm:node:1811163747,node,1811163747.0,Camooweal Billabong,-19.927803,138.1151233,QLD,,,,,,,,camp_site,osm_overpass,,,,,,,0,,,,21SP135293,54800000.0,qld_dcdb,0,0,1,camp,0.6,0,2025-09-12T11:05:04.539964
osm:way:193282536,way,193282536.0,Camooweal Roadhouse Caravan Park,-19.9203272,138.1181548,QLD,,,,,,,,caravan_site,osm_overpass,,,,,,,0,,,,401C3931;301C3931;310C3931;402C3931;302C3931;309C3931;21SP135293;308C3931;307C3931;306C3931;303C3931;304C3931;305C3931;403C3931;404C3931;405C3931,54830347.0,qld_dcdb,0,0,1,holiday,0.6,0,2025-09-12T11:05:04.539964
osm:node:1811192783,node,1811192783.0,Post Office Hotel Motel,-19.9223714,138.1191992,QLD,,,,,,,,caravan_site,osm_overpass,,,,,,,0,,,,201C3931;202C3931;203C3931;101C3931;102C3931;103C3931;210C3931;208C3931;209C3931;3CP909530;1SP121329;204C3931;205C3931;104C3931;2RP716683;4RP716683;3RP716683;206C3931;207C3931;1RP716683;401C3931;410C3931,53126.0,qld_dcdb,0,0,1,holiday,0.6,0,2025-09-12T11:05:04.539964
osm:way:193282538,way,193282538.0,Camooweal Post Office Hotel Motel & Caravan Park,-19.9223182,138.1193664,QLD,,,,,,,,caravan_site,osm_overpass,,,,,,,0,,,,201C3931;202C3931;203C3931;102C3931;103C3931;210C3931;208C3931;209C3931;3CP909530;1SP121329;204C3931;205C3931;104C3931;2RP716683;4RP716683;206C3931;207C3931;3RP732385;5RP909531;401C3931;410C3931,52959.0,qld_dcdb,0,0,1,holiday,0.6,0,2025-09-12T11:05:04.539964
osm:node:1811163748,node,1811163748.0,Camooweal Caves National Park Campground,-20.04361,138.17194,QLD,,,,,,,,camp_site,osm_overpass,,,,,,,0,,,,39AP23642,138000000.0,qld_dcdb,0,0,1,camp,0.6,0,2025-09-12T11:05:04.539964
osm:node:1811181032,node,1811181032.0,Kingfisher Camp,-17.8687238,138.2848886,QLD,,,,,,,,camp_site,osm_overpass,,,,,,,0,,,,11SP320130,2340000000.0,qld_dcdb,0,0,1,camp,0.6,0,2025-09-12T11:05:04.539964
osm:way:1175013459,way,1175013459.0,Hells Gate Roadhouse Camping,-17.4547035,138.357384,QLD,,,,,,,,camp_site,osm_overpass,,Hells Gate Roadhouse,,,,,0,,,,2SP217472,1710000000.0,qld_dcdb,0,0,1,camp,0.6,0,2025-09-12T11:05:04.539964
osm:way:692353158,way,692353158.0,Boodjamulla (Lawn Hill) National Park -,-18.7014219,138.4864242,QLD,,,,,,,,camp_site,osm_overpass,,,,,,,0,,,,18SP326431;018SP326431,43940000.0,qld_dcdb,0,0,1,camp,0.6,0,2025-09-12T11:05:04.539964
osm:node:1811158620,node,1811158620.0,Adels Grove,-18.689457,138.5281377,QLD,,,,,,,,camp_site,osm_overpass,,,,,,,0,,,,3GY15;5SP111112,5250299600.0,qld_dcdb,0,0,1,camp,0.6,0,2025-09-12T11:05:04.539964
osm:way:360816057,way,360816057.0,Adels Grove,-18.6902749,138.5300932,QLD,,,,,https://www.adelsgrove.com.au/,,,caravan_site,osm_overpass,,,,,,,0,,,,3GY15;5SP111112,5250299600.0,qld_dcdb,0,0,1,holiday,0.6,0,2025-09-12T11:05:04.539964
osm:node:1811187252,node,1811187252.0,Miyumba Bush Camp,-19.01833,138.7225,QLD,,,,,,,,camp_site,osm_overpass,,,,,,,0,,,,13CP899004;13CP899004,1870000.0,qld_dcdb,0,0,1,camp,0.6,0,2025-09-12T11:05:04.539964
osm:node:1811179208,node,1811179208.0,Inca Creek Rest Area,-20.0661125,138.7595392,QLD,,,,,,,,camp_site,osm_overpass,,,,,,,0,,,,5SP187232;5SP187232,1774000000.0,qld_dcdb,0,0,1,camp,0.6,0,2025-09-12T11:05:04.539964
osm:node:5757213421,node,5757213421.0,Big Red Bash Campground,-25.8756266,139.056335,QLD,,,,,,,,camp_site,osm_overpass,,,,,,,0,,,,5331SP263966,8710000000.0,qld_dcdb,0,0,1,camp,0.6,0,2025-09-12T11:05:04.539964
osm:node:1811180413,node,1811180413.0,Kev Kerr Rest Area,-22.97361,139.22889,QLD,,,,,,,,camp_site,osm_overpass,,,,,,,0,,,,3SP263939,12900000000.0,qld_dcdb,0,0,1,camp,0.6,0,2025-09-12T11:05:04.539964
osm:node:1811177537,node,1811177537.0,Gregory Downs,-18.646278,139.2503982,QLD,,,,,,,,camp_site,osm_overpass,,,,,,,0,,,,3SP194668;5SP287783;5SP287783;24SP265808;3SP194668,3037053100.0,qld_dcdb,0,0,1,camp,0.6,0,2025-09-12T11:05:04.539964
osm:node:6461388573,node,6461388573.0,Camping Reserve,-18.6472166,139.2534758,QLD,,,,,,,,camp_site,osm_overpass,,,,,,,0,,,,5SP287783;5SP287783,16940000.0,qld_dcdb,0,0,1,camp,0.6,0,2025-09-12T11:05:04.539964
osm:node:1811205183,node,1811205183.0,World War 2 Rest Area,-20.3730298,139.2646249,QLD,,,,,,,,camp_site,osm_overpass,,,,,,,0,,,,2SP162421;2SP162421,1920000000.0,qld_dcdb,0,0,1,camp,0.6,0,2025-09-12T11:05:04.539964
osm:node:9892513238,node,9892513238.0,Tirranna Springs Roadhouse,-17.895422,139.2967756,QLD,,,,,,,,camp_site,osm_overpass,,Tirranna Springs Roadhouse,,,,,0,,,,6SP280656,549700.0,qld_dcdb,0,0,1,camp,0.6,0,2025-09-12T11:05:04.539964
osm:node:1811160734,node,1811160734.0,Beames Brook,-17.8789515,139.3418906,QLD,,,,,,,,camp_site,osm_overpass,,,,,,,0,,,,118PC41,2250000000.0,qld_dcdb,0,0,1,camp,0.6,0,2025-09-12T11:05:04.539964
osm:way:186485225,way,186485225.0,Birdsville Caravan Park,-25.9000731,139.3546999,QLD,,,,,http://www.birdsvillecaravanpark.com/,,,camp_site,osm_overpass,,,,,,,0,,,,510RB17;1SP276160;GSP332292;FSP332292;HSP332292;4SP340136,7062310.0,qld_dcdb,0,0,1,holiday,0.6,0,2025-09-12T11:05:04.539964
osm:node:1811162741,node,1811162741.0,Birdsville Windmill,-25.90611,139.37333,QLD,,,,,,,,camp_site,osm_overpass,,,,,,,0,,,,3SP340136;4SP340136,9920000.0,qld_dcdb,0,0,1,camp,0.6,0,2025-09-12T11:05:04.539964
osm:way:966617451,way,966617451.0,Bedourie Tourist Park,-24.3631963,139.4685726,QLD,,,,,,,,camp_site,osm_overpass,,Diamantina Shire Council,,,,,0,,,,2SP127186;1SP127186;612CP900256;611CP900256;6SP297079;2SP297079,22328952.0,qld_dcdb,0,0,1,camp,0.6,0,2025-09-12T11:05:04.539964
osm:node:8942835007,node,8942835007.0,Bedourie Tourist Park,-24.363033,139.4697778,QLD,,,,,,,,,osm_overpass,,Diamantina Shire Council,,,,osm_overpass,0,,,,2SP127186;1SP127186;511CP900256;612CP900256;512RP904681;510CP900256;6SP297079;6SP297079;2SP297079,44633499.0,qld_dcdb,0,0,1,unknown,0.6,1,2025-09-12T11:05:04.539964
osm:node:8942835009,node,8942835009.0,Bedourie Tourist Park,-24.3631076,139.4697499,QLD,,,,,,,,,osm_overpass,,Diamantina Shire Council,,,,,0,,,,2SP127186;1SP127186;511CP900256;612CP900256;512RP904681;6SP297079;6SP297079;2SP297079,44631616.0,qld_dcdb,0,0,1,unknown,0.6,1,2025-09-12T11:05:04.539964
osm:node:1811194899,node,1811194899.0,Simpson Desert Oasis Roadhouse,-24.3563549,139.4714782,QLD,,,,,,,,camp_site,osm_overpass,,,,,,,0,,,,2SP223513;29CP863210;1CP863210;2SP197775;310EU8;309EU8;308EU8;307EU8;306EU8;1SP110068;400SP325762;1SP223513;3SP223513,46381.0,qld_dcdb,0,0,1,camp,0.6,0,2025-09-12T11:05:04.539964
osm:way:841525656,way,841525656.0,Copper City Caravan Park,-20.7080894,139.4945119,QLD,185-189,Little West Street,,,,,mountisa@discoveryparks.com.au,camp_site,osm_overpass,,,,,,,0,,,,12MPH21965;11MPH21965;16MPH21965;17MPH21965;15MPH21965;14MPH21965;13MPH21965;2MPH30284;1MPH21930;1MPH30707;0SP206664;0SP206664;6SP206664;7SP206664;8SP206664;9SP206664;10SP206664;23SP206664;102CP891613;8MPH7941;0SP206664;0SP206664;1SP206664;2SP206664;3SP206664;4SP206664;5SP206664;19SP206664;20SP206664;21SP206664;24SP206664;25SP206664;26SP206664;27SP206664;28SP206664,391139.0,qld_dcdb,0,0,1,holiday,0.6,0,2025-09-12T11:05:04.539964
osm:way:1269299615,way,1269299615.0,AAOK Moondarra Caravan Park,-20.6809966,139.4979416,QLD,,,,,,,,camp_site,osm_overpass,,,,,,,0,,,,45USL48255;2MPH7948;3MPH7948;1SP214913;90SP237661,111079280.0,qld_dcdb,0,0,1,holiday,0.6,0,2025-09-12T11:05:04.539964
osm:way:1416400062,way,1416400062.0,Sunset Tourist Park,-20.7087733,139.4999765,QLD,14,Sunset Drive,,4825.0,,,,caravan_site,osm_overpass,,,,,,,0,,,,86MPH21970;2SP159003;4AP3553;3SP159003;1MPH8131;5AP3553;16MPH22122;15MPH22122;92MPH21970;91MPH21970;90MPH21970;89MPH21970;16MPH33412;87MPH21970;85MPH21970;1MPH22066;84MPH21970;BMPH8131;AMPH22066;AMPH22066;BMPH22122,70700.52,qld_dcdb,0,0,1,holiday,0.6,0,2025-09-12T11:05:04.539964
osm:way:1416400063,way,1416400063.0,Sunset Tourist Park Office,-20.7096935,139.5004137,QLD,14,Sunset Drive,,4825.0,,,,,osm_overpass,,,,,,,0,,,,4SP159003;4AP3553;3SP159003;BSP159003;ASP159003;93MPH21970;1MPH8131;5AP3553;92MPH21970;91MPH21970;90MPH21970;89MPH21970;16MPH33412;BMPH8131;AMPH22066;AMPH22066;16MPH30299;17MPH30299;18MPH30299;23MPH30299;6SP214917;11USL47825;61MPH21971;62MPH21971;63MPH21971;61RD171;1SP214917;2SP214917;3SP214917;4SP214917;5SP214917;7SP214917;0SP214917;24SP349315,103261.0,qld_dcdb,0,0,1,unknown,0.6,1,2025-09-12T11:05:04.539964
osm:node:5760987221,node,5760987221.0,Mount Isa Caravan Park,-20.724561,139.5098716,QLD,,,,,,,,caravan_site,osm_overpass,,,,,,,0,,,,18RD284;16M758197;1RD838440;1MPH30437;ASP214929,214688.0,qld_dcdb,0,0,1,holiday,0.6,0,2025-09-12T11:05:04.539964
osm:node:1811170589,node,1811170589.0,Dajarra Campground,-21.6961164,139.5132523,QLD,,,,,,,,camp_site,osm_overpass,,Cloncurry Shire Council,,,,,0,,,,34MPH13988;35MPH13988;36MPH13988;37MPH13988;38MPH13988;39MPH13988;40MPH13988;1MPH32116;2MPH32116;3MPH34472;24MPH13988;25MPH13988;26MPH13988;27MPH13988;28MPH13988;29MPH13988;1MPH13988;2SP299486;411SP299426,999904.0,qld_dcdb,0,0,1,camp,0.6,0,2025-09-12T11:05:04.539964
osm:way:455194229,way,455194229.0,Discovery Holiday Parks - Argylla (BIG4),-20.722183,139.515826,QLD,,,,,https://www.big4.com.au/caravan-parks/qld/mount-isa,,,caravan_site,osm_overpass,,,BIG4,BIG4 Holiday Parks,https://www.big4.com.au/caravan-parks/qld/mount-isa,,0,,,,96RD804400;1SP328127;2SP328127;467SP328127;01SP328127;02SP328127,20806892.0,qld_dcdb,0,0,1,holiday,0.6,0,2025-09-12T11:05:04.539964
osm:way:27601004,way,27601004.0,Caravan Park Road,-20.7233136,139.5161171,QLD,,,,,,,,,osm_overpass,,,,,,,0,,,,3SP328127;467SP328127;96RD804400;2SP328127;467SP328127;02SP328127;03SP328127,41523528.0,qld_dcdb,0,0,1,unknown,0.6,1,2025-09-12T11:05:04.539964
osm:way:653913884,way,653913884.0,Caravan Park Road,-20.7233985,139.5161144,QLD,,,,,,,,,osm_overpass,,,,,,,0,,,,3SP328127;467SP328127;96RD804400;2SP328127;467SP328127;02SP328127;03SP328127,41523528.0,qld_dcdb,0,0,1,unknown,0.6,1,2025-09-12T11:05:04.539964
osm:way:27601003,way,27601003.0,Caravan Park Road,-20.7236786,139.5167275,QLD,,,,,,,,,osm_overpass,,,,,,,0,,,,69RD800557;3SP328127;467SP328127;96RD804400;2SP328127;467SP328127;02SP328127;03SP328127,41554338.0,qld_dcdb,0,0,1,unknown,0.6,1,2025-09-12T11:05:04.539964
osm:node:1811175115,node,1811175115.0,Firey Creek,-18.695997,139.5219826,QLD,,,,,,,,camp_site,osm_overpass,,,,,,,0,,,,5SP287784;05SP287784;5SP287784;05SP287784,7896000000.0,qld_dcdb,0,0,1,camp,0.6,0,2025-09-12T11:05:04.539964
osm:node:6087018797,node,6087018797.0,Burketown Caravan Park,-17.7424359,139.5463496,QLD,,,,,https://www.burketowncaravanpark.net.au/,,,camp_site,osm_overpass,,,,,,,0,,,,141B1364;69B1364;68B1364;65B1364;607B1361;608B1361;13RP744339;602SP256050;73SP258882;161B1364;12B13616;132B1364;67B1364;66B1364;615B1361;2SP280677;131B1364;64B1364;77B1364;601B1361,39460.0,qld_dcdb,0,0,1,holiday,0.6,0,2025-09-12T11:05:04.539964
osm:node:1811181837,node,1811181837.0,Lake Moondarra Picnic Area,-20.58806,139.57694,QLD,,,,,,,,camp_site,osm_overpass,,,,,,,0,,,,90SP237661,111000000.0,qld_dcdb,0,0,1,camp,0.6,0,2025-09-12T11:05:04.539964
osm:node:1811177110,node,1811177110.0,Glengyle Rest Area,-24.9137608,139.6489411,QLD,,,,,,,,camp_site,osm_overpass,,,,,,,0,,,,1SP263960;1SP263960,11080000000.0,qld_dcdb,0,0,1,camp,0.6,0,2025-09-12T11:05:04.539964
osm:node:316606220,node,316606220.0,Peak Creek Rest Area,-22.4107855,139.6633235,QLD,,,,,,,,camp_site,osm_overpass,,,,,,,0,,,,70SP262992;70SP262992,4980000000.0,qld_dcdb,0,0,1,camp,0.6,0,2025-09-12T11:05:04.539964
osm:node:8953415155,node,8953415155.0,Eddie Miller Rest Area,-23.4161733,139.6691528,QLD,,,,,,,,camp_site,osm_overpass,,,,,,,0,,,,3SP263939,12900000000.0,qld_dcdb,0,0,1,camp,0.6,0,2025-09-12T11:05:04.539964
osm:node:1811200635,node,1811200635.0,Upper Limestone Creek,-22.59833,139.71806,QLD,,,,,,,,camp_site,osm_overpass,,,,,,,0,,,,70SP262992,2490000000.0,qld_dcdb,0,0,1,camp,0.6,0,2025-09-12T11:05:04.539964
osm:node:1811182359,node,1811182359.0,Leichhardt River,-18.80611,139.785,QLD,,,,,,,,camp_site,osm_overpass,,,,,,,0,,,,8TW8,287000000.0,qld_dcdb,0,0,1,camp,0.6,0,2025-09-12T11:05:04.539964
osm:node:8930360664,node,8930360664.0,The Thirsty Camel,-21.3563185,139.8640489,QLD,,,,,,,,camp_site,osm_overpass,,,,,,,0,,,,1D59812;4D59811;85USL756;13MPH13985;11AP15744;12MPH13985;14MPH13985;5D5988;16MPH13985;28D5981;29D5981;181SP136487,421130.0,qld_dcdb,0,0,1,camp,0.6,0,2025-09-12T11:05:04.539964
osm:way:294265043,way,294265043.0,Boulia Caravan Park,-22.9094495,139.9188213,QLD,,,,,,,,caravan_site,osm_overpass,,,,,,,0,,,,1SP118535;106SP349329;5SP111278,129610.0,qld_dcdb,0,0,1,holiday,0.6,0,2025-09-12T11:05:04.539964
osm:node:1811163243,node,1811163243.0,Boulia Caravan Park,-22.9092892,139.9190477,QLD,,,,,,,,camp_site,osm_overpass,,,,,,,0,,,,1SP118535;106SP349329;5SP111278,129610.0,qld_dcdb,0,0,1,holiday,0.6,0,2025-09-12T11:05:04.539964
osm:node:1811163598,node,1811163598.0,Burke River,-22.8886531,139.9378926,QLD,,,,,,,,camp_site,osm_overpass,,,,,,,0,,,,101SP349329,2250000.0,qld_dcdb,0,0,1,camp,0.6,0,2025-09-12T11:05:04.539964
osm:node:1850870733,node,1850870733.0,Mary Kathleen Caravan Park,-20.7836311,139.9788757,QLD,,,,,,,,caravan_site,osm_overpass,,,,,,,0,,,,922SP137139,454000000.0,qld_dcdb,0,0,1,holiday,0.6,0,2025-09-12T11:05:04.539964
osm:node:1811175356,node,1811175356.0,Fountain Springs Rest Area,-20.800115,139.9965673,QLD,,,,,,,,camp_site,osm_overpass,,,,,,,0,,,,554SP177589;554SP177589,718000000.0,qld_dcdb,0,0,1,camp,0.6,0,2025-09-12T11:05:04.539964
osm:node:1811191018,node,1811191018.0,Old Police Barracks Waterhole,-22.72,140.03111,QLD,,,,,,,,camp_site,osm_overpass,,,,,,,0,,,,3560SP256833,308000000.0,qld_dcdb,0,0,1,camp,0.6,0,2025-09-12T11:05:04.539964
osm:node:10960688811,node,10960688811.0,Corella Dam,-20.8376709,140.0460634,QLD,,,,,,,,camp_site,osm_overpass,,,,,,,0,,,,84SP292303;84SP292303,12760000.0,qld_dcdb,0,0,1,camp,0.6,0,2025-09-12T11:05:04.539964
osm:node:1811165036,node,1811165036.0,Clem Walton Park & Corella Dam,-20.82667,140.04889,QLD,,,,,,,,camp_site,osm_overpass,,,,,,,0,,,,84SP292303;84SP292303,12760000.0,qld_dcdb,0,0,1,camp,0.6,0,2025-09-12T11:05:04.539964
osm:node:1811199156,node,1811199156.0,Tower Layby,-18.1525,140.09667,QLD,,,,,,,,camp_site,osm_overpass,,,,,,,0,,,,2SP181805;SSP110462;3SP181805,2583662000.0,qld_dcdb,0,0,1,camp,0.6,0,2025-09-12T11:05:04.539964
osm:node:2385035547,node,2385035547.0,Burke & Wills Memorial Rest Area (Corella River),-20.7822169,140.1125243,QLD,,,,,,,,camp_site,osm_overpass,,,,,,,0,,,,220SP177588;220SP177588,1312000000.0,qld_dcdb,0,0,1,camp,0.6,0,2025-09-12T11:05:04.539964
osm:node:316605967,node,316605967.0,Monstraven Layby,-19.9482726,140.2076057,QLD,,,,,,,,camp_site,osm_overpass,,,,,,,0,,,,59TG40;59TG40,4280000000.0,qld_dcdb,0,0,1,camp,0.6,0,2025-09-12T11:05:04.539964
osm:node:316605971,node,316605971.0,Telstra Tower Layby,-19.9873791,140.2162256,QLD,,,,,,,,camp_site,osm_overpass,,,,,,,0,,,,3421SP238152;59TG40;3GR44,2401940000.0,qld_dcdb,0,0,1,camp,0.6,0,2025-09-12T11:05:04.539964
osm:node:1811197547,node,1811197547.0,Telstra Tower Layby,-19.98694,140.21639,QLD,,,,,,,,camp_site,osm_overpass,,,,,,,0,,,,3421SP238152;59TG40;3GR44,2401940000.0,qld_dcdb,0,0,1,camp,0.6,0,2025-09-12T11:05:04.539964
osm:node:1811197618,node,1811197618.0,Terry Smith Lookout,-20.080279,140.2272577,QLD,,,,,,,,camp_site,osm_overpass,,,,,,,0,,,,92SP255105;92SP255105,377600000.0,qld_dcdb,0,0,1,camp,0.6,0,2025-09-12T11:05:04.539964
osm:node:1811163596,node,1811163596.0,Burke & Wills Roadhouse,-19.2276502,140.3475511,QLD,,,,,,,,camp_site,osm_overpass,,,,,,,0,,,,50SP212806;2LS12;3LS809246,3300040460.0,qld_dcdb,0,0,1,camp,0.6,0,2025-09-12T11:05:04.539964
osm:node:1811169245,node,1811169245.0,Cowan Downs Rest Area,-18.98667,140.43472,QLD,,,,,,,,camp_site,osm_overpass,,,,,,,0,,,,5SP299159;5SP299159,4740000000.0,qld_dcdb,0,0,1,camp,0.6,0,2025-09-12T11:05:04.539964
osm:node:1811201315,node,1811201315.0,Wal's Camp,-20.71611,140.49639,QLD,,,,,,,,camp_site,osm_overpass,,,,,,,0,,,,1RP703311;5BD212,388710.0,qld_dcdb,0,0,1,camp,0.6,0,2025-09-12T11:05:04.539964
osm:node:1811172279,node,1811172279.0,Donors Hill Rest Area,-18.6982281,140.5123188,QLD,,,,,,,,camp_site,osm_overpass,,,,,,,0,,,,2SP340482;02SP287775;2SP340482;02SP287775,5544000000.0,qld_dcdb,0,0,1,camp,0.6,0,2025-09-12T11:05:04.539964
osm:way:230522557,way,230522557.0,Oasis Caravan Park,-20.7060054,140.5172722,QLD,,,,,,,,caravan_site,osm_overpass,,,,,,,0,,,,106RP703327;107RP703327;110RP703327;113RP703327;2RP718975;1RP718975;114RP703327;3RP716924;105RP703327;109RP703327;111RP703327;112RP703327;1RP716924;104RP703327;103RP703327;102RP703327;101RP703327;100RP703327;15RP725217;14RP725217;13RP725217;12RP725217;108RP703327;214RP703327;4RP716924,49586.0,qld_dcdb,0,0,1,holiday,0.6,0,2025-09-12T11:05:04.539964
osm:node:9890752921,node,9890752921.0,Discovery Parks Cloncurry,-20.7076035,140.5280131,QLD,,,,,,,,camp_site,osm_overpass,,,Discovery,Discovery Parks,,,0,,,,100RP910522;95CP865804;4910SP135396;33BD68,10482970.0,qld_dcdb,0,0,1,camp,0.6,0,2025-09-12T11:05:04.539964
osm:node:1811178081,node,1811178081.0,Hamilton Channels,-22.77306,140.58083,QLD,,,,,,,,camp_site,osm_overpass,,,,,,,0,,,,3HL12,735000000.0,qld_dcdb,0,0,1,camp,0.6,0,2025-09-12T11:05:04.539964
osm:node:8444322782,node,8444322782.0,George and Gladys Hasted Rest Area,-22.7728017,140.597692,QLD,,,,,,,,camp_site,osm_overpass,,,,,,,0,,,,2HL8;1HL1,5186070.0,qld_dcdb,0,0,1,camp,0.6,0,2025-09-12T11:05:04.539964
osm:node:1811160176,node,1811160176.0,Bang Bang Rest Area,-18.5265844,140.653821,QLD,,,,,,,,camp_site,osm_overpass,,,,,,,0,,,,2SP340482;02SP287775;2SP340482;02SP287775,5544000000.0,qld_dcdb,0,0,1,camp,0.6,0,2025-09-12T11:05:04.539964
osm:node:1811162304,node,1811162304.0,Betoota Rest Area,-25.69333,140.74778,QLD,,,,,,,,camp_site,osm_overpass,,,,,,,0,,,,110DO4;109DO4;108DO4;107DO4;106DO4;105DO4;104DO4;103DO4;102DO4;101DO4;203DO4;204DO4;208DO4;209DO4;21SP314286;3SP226882;4SP302011,8134392.0,qld_dcdb,0,0,1,camp,0.6,0,2025-09-12T11:05:04.539964
osm:node:1811192863,node,1811192863.0,Qt124,-18.2880962,140.809662,QLD,,,,,,,,camp_site,osm_overpass,,,,,,,0,,,,,,,0,0,1,camp,0.6,0,2025-09-12T11:05:04.539964
osm:node:1811183361,node,1811183361.0,Little Bynoe River,-17.86667,140.82444,QLD,,,,,,,,camp_site,osm_overpass,,,,,,,0,,,,21SP320135;22SP320135,23210000.0,qld_dcdb,0,0,1,camp,0.6,0,2025-09-12T11:05:04.539964
osm:way:230311060,way,230311060.0,Karumba Point Sunset Caravan Park,-17.4633958,140.8302141,QLD,,,,,,,,caravan_site,osm_overpass,,,,,,,0,,,,CSP242969;GSP242986;11NM843281;12NM843281;11SP258858,5554934.0,qld_dcdb,0,0,1,holiday,0.6,0,2025-09-12T11:05:04.539964
osm:way:230324861,way,230324861.0,Karumba Point Tourist Park,-17.4546116,140.836611,QLD,,Col Kitching Drive,,4891.0,,,,caravan_site,osm_overpass,,,,,,,0,,,,65SP166299;12SP323741;11SP258858,8405150.0,qld_dcdb,0,0,1,holiday,0.6,0,2025-09-12T11:05:04.539964
osm:way:863533339,way,863533339.0,Gulf Country Caravan Park,-17.4891894,140.8366892,QLD,,,,,,,,caravan_site,osm_overpass,,,,,,,0,,,,3RP739966;6RP843623;5RP843623;1140SP227924;2SP238682;2SP172670;3SP235294;2RP739966;4RP843623;7RP843623;1SP238682;2SP235294,330338.0,qld_dcdb,0,0,1,holiday,0.6,0,2025-09-12T11:05:04.539964
osm:way:863742613,way,863742613.0,Caravan Park,-17.4847672,140.8381855,QLD,,,,,,,,,osm_overpass,,,,,,,0,,,,115NM34;10RP733673;9RP733673;602K3642;603K3642;607K3642;609K3642;11RP733673;8RP733673;7RP733673;6RP733673;5RP733673;601K3642;604K3642;605K3642;606K3642;608K3642;1RP843624;14RP843624;1SP287771,39621.0,qld_dcdb,0,0,1,unknown,0.6,1,2025-09-12T11:05:04.539964
osm:node:1811192883,node,1811192883.0,Qt125,-17.961217,140.9039836,QLD,,,,,,,,camp_site,osm_overpass,,,,,,,0,,,,9NM143;9NM143,3420000000.0,qld_dcdb,0,0,1,camp,0.6,0,2025-09-12T11:05:04.539964
osm:node:5427756949,node,5427756949.0,,-21.83514,140.912762,QLD,,,,,,,,camp_site,osm_overpass,,,,,,,0,,,,1CP865897,99900000.0,qld_dcdb,0,0,1,camp,0.6,1,2025-09-12T11:05:04.539964
osm:way:563147225,way,563147225.0,cong camp,-21.8350568,140.913348,QLD,,,,,,,,camp_site,osm_overpass,,,,,,,0,,,,1CP865897,99900000.0,qld_dcdb,0,0,1,camp,0.6,0,2025-09-12T11:05:04.539964
osm:node:5427756950,node,5427756950.0,,-21.8351505,140.9135949,QLD,,,,,,,,camp_site,osm_overpass,,,,,,,0,,,,1CP865897,99900000.0,qld_dcdb,0,0,1,camp,0.6,1,2025-09-12T11:05:04.539964
osm:node:1811175660,node,1811175660.0,Fullarton River North Rest Area,-21.0213028,140.9396674,QLD,,,,,,,,camp_site,osm_overpass,,,,,,,0,,,,3AL66;BAP23800,20570000.0,qld_dcdb,0,0,1,camp,0.6,0,2025-09-12T11:05:04.539964
osm:node:1811179292,node,1811179292.0,Jack And Lil's Rest Area,-19.66861,140.9425,QLD,,,,,,,,camp_site,osm_overpass,,,,,,,0,,,,10SP223544;2CE7,375556688.0,qld_dcdb,0,0,1,camp,0.6,0,2025-09-12T11:05:04.539964
osm:way:265146867,way,265146867.0,State Border Rest Area,-36.344502,140.9672926,VIC,,,,,,,,camp_site,osm_overpass,,VicRoads,,,,,0,,,,,,,0,0,0,camp,0.6,0,2025-09-12T11:05:04.539964
osm:node:7738705057,node,7738705057.0,Border Camping Area,-34.7055041,140.9690406,VIC,,,,,,,,camp_site,osm_overpass,,Parks Vic,,,,,0,,,,,,,0,0,0,camp,0.6,0,2025-09-12T11:05:04.539964
osm:node:4974665801,node,4974665801.0,,-37.8763994,140.9779388,VIC,,,,,,,,camp_site,osm_overpass,,,,,,,0,,,,,,,0,0,0,camp,0.6,1,2025-09-12T11:05:04.539964
osm:node:1808392058,node,1808392058.0,Pinaster Picnic Area,-37.84139,140.97833,VIC,,,,,,,,camp_site,osm_overpass,,,,,,,0,,,,,,,0,0,0,camp,0.6,0,2025-09-12T11:05:04.539964
osm:node:1808392102,node,1808392102.0,Serviceton Recreational Reserve,-36.3866374,140.9808681,VIC,,,,,,,,camp_site,osm_overpass,,,,,,,0,,,,,,,0,0,0,camp,0.6,0,2025-09-12T11:05:04.539964
osm:node:7941013290,node,7941013290.0,Gum Hole Camping Area,-23.6710774,140.9859347,QLD,,,,,https://parks.des.qld.gov.au/parks/diamantina/camping/gum-hole,,,camp_site,osm_overpass,,,,,,,0,,,,,,,0,0,1,camp,0.6,0,2025-09-12T11:05:04.539964
osm:node:316599357,node,316599357.0,Princess Margaret Rose Caves - Lower Glenelg NP,-37.9868781,140.9918458,VIC,,,,,,,,camp_site,osm_overpass,,,,,,,0,,,,,,,0,0,0,camp,0.6,0,2025-09-12T11:05:04.539964
osm:node:1296124476,node,1296124476.0,Red Bluff,-35.8769929,140.9984674,VIC,,,,,,,,camp_site,osm_overpass,,,,,,,0,,,,,,,0,0,0,camp,0.6,0,2025-09-12T11:05:04.539964
osm:node:1956246563,node,1956246563.0,,-28.9958921,141.0006168,QLD,,,,,,,,camp_site,osm_overpass,,,,,,,0,,,,6CR9,2480000.0,qld_dcdb,0,0,1,camp,0.6,1,2025-09-12T11:05:04.539964
osm:node:9738925392,node,9738925392.0,Burns/Cockburn Rest Area,-32.0790736,141.0019269,NSW,,,,,,,,camp_site,osm_overpass,,,,,,,0,,,nsw_area_error:RetryError[<Future at 0x106a034d0 state=finished raised ConnectionError>],,,,1,0,0,camp,0.6,0,2025-09-12T11:05:04.539964
osm:node:5472432421,node,5472432421.0,,-38.0492915,141.0074972,VIC,,,,,,,,camp_site,osm_overpass,,,,,,,0,,,,,,,0,0,0,camp,0.6,1,2025-09-12T11:05:04.539964
osm:way:234989152,way,234989152.0,Kywong Caravan Park,-38.0388007,141.010269,VIC,,,,,,,,caravan_site,osm_overpass,,,,,,,0,,,,,,,0,0,0,holiday,0.6,0,2025-09-12T11:05:04.539964
osm:node:8042117285,node,8042117285.0,Karnkendi Campsite,-38.0467939,141.011506,VIC,37-47,Wade Street,Nelson,3292.0,http://www.karnkendi.pcsa.org.au/,,,camp_site,osm_overpass,,,,,,,0,,,,,,,0,0,0,camp,0.6,0,2025-09-12T11:05:04.539964
osm:node:9633308060,node,9633308060.0,Lasletts Canoe Camp,-37.9935694,141.0161305,VIC,,,,,,,,camp_site,osm_overpass,,,,,,,0,,,,,,,0,0,0,camp,0.6,0,2025-09-12T11:05:04.539964
osm:node:13119132378,node,13119132378.0,Berrook Campground,-34.9897277,141.0192177,VIC,,,,,,,,camp_site,osm_overpass,,,,,,,0,,,,,,,0,0,0,camp,0.6,0,2025-09-12T11:05:04.539964
osm:way:1361004609,way,1361004609.0,Lindsay Point Campground,-34.088659,141.0401003,VIC,,,,,,,,camp_site,osm_overpass,,,,,,,0,,,,,,,0,0,0,camp,0.6,0,2025-09-12T11:05:04.539964
osm:node:1676322293,node,1676322293.0,Lindsay Point Campground,-34.0882845,141.0404984,VIC,,,,,,,,camp_site,osm_overpass,,,,,,,0,,,,,,,0,0,0,camp,0.6,0,2025-09-12T11:05:04.539964
osm:way:246097526,way,246097526.0,,-17.6775322,141.0684238,QLD,,,,,,,,caravan_site,osm_overpass,,,,,,,0,,,,42N14839;5SP112907;60N14839;43N14839;45N14839;47N14839;48N14839;14SP329435;10N14858;59N14839;44N14839;46N14839;50N14839;49N14839,408845.0,qld_dcdb,0,0,1,holiday,0.6,1,2025-09-12T11:05:04.539964
osm:node:1808393898,node,1808393898.0,Ngallo Park,-35.27306,141.06917,VIC,,,,,,,,camp_site,osm_overpass,,,,,,,0,,,,,,,0,0,0,camp,0.6,0,2025-09-12T11:05:04.539964
osm:node:3341866032,node,3341866032.0,Shearers Quarters camp ground,-34.5633205,141.0712075,VIC,,,,,,,,camp_site,osm_overpass,,,,,,,0,,,,,,,0,0,0,camp,0.6,0,2025-09-12T11:05:04.539964
osm:node:3227710880,node,3227710880.0,Coburns Pines,-35.3974344,141.0715353,VIC,,,,,,,,camp_site,osm_overpass,,,,,,,0,,,,,,,0,0,0,camp,0.6,0,2025-09-12T11:05:04.539964
osm:node:1811192314,node,1811192314.0,Pine View Station,-30.69611,141.07278,NSW,,,,,https://www.pineviewstation.com.au/,+61 2 8809 2513,,camp_site,osm_overpass,,,,,,,0,,,nsw_area_error:RetryError[<Future at 0x106d0c050 state=finished raised ConnectionError>],,,,1,0,0,camp,0.6,0,2025-09-12T11:05:04.539964
osm:node:1811163591,node,1811163591.0,Burke & Wills Dig Tree,-27.62194,141.0733641,QLD,,,,,,,,camp_site,osm_overpass,,,,,,,0,,,,415CP835115,3007000000.0,qld_dcdb,0,0,1,camp,0.6,0,2025-09-12T11:05:04.539964
osm:way:246097527,way,246097527.0,Normanton Caravan Park,-17.6692668,141.0777986,QLD,,,,,,,,caravan_site,osm_overpass,,,,,,,0,,,,1RP737048;6N14892;914N1481;807N1481;912N1481;2N14838;806N1481;1SP116572;13SP116572;BSP116572;102NM131;8N14876;3N14892;11SP116569;12SP116569;1SP116572;ASP116572;913N1481,68018.0,qld_dcdb,0,0,1,holiday,0.6,0,2025-09-12T11:05:04.539964
osm:node:2429187718,node,2429187718.0,White Sands,-38.0933608,141.0794603,VIC,,,,,,,,camp_site,osm_overpass,,,,,,,0,,,,,,,0,0,0,camp,0.6,0,2025-09-12T11:05:04.539964
osm:way:959882367,way,959882367.0,Bush Camping Reserve,-17.6609983,141.0875812,QLD,,,,,,,,camp_site,osm_overpass,,Carpentaria Shire,,,,,0,,,,14N14840;18N14840;20N14840;38SP120083;1N14840;5N14840;6N14840;8N14840;10N14840;13N14840;15N14840;16N14840;17N14840;2N14840;3N14840;4N14840;7N14840;9N14840;19N14840;38SP120083,2878216.0,qld_dcdb,0,0,1,camp,0.6,0,2025-09-12T11:05:04.539964
osm:node:2337828664,node,2337828664.0,Big Bend Camping Ground,-34.0518232,141.0886234,NSW,,,,,,,,camp_site,osm_overpass,,,,,,,0,,,nsw_area_error:RetryError[<Future at 0x106997c50 state=finished raised ConnectionError>],,,,1,0,0,camp,0.6,0,2025-09-12T11:05:04.539964
osm:node:1811179196,node,1811179196.0,Hunters Gorge Campground,-23.68194,141.10222,QLD,,,,,https://parks.des.qld.gov.au/parks/diamantina/camping/hunters-gorge,,,camp_site,osm_overpass,,,,,,,0,,,,6NPW560,5070000000.0,qld_dcdb,0,0,1,camp,0.6,0,2025-09-12T11:05:04.539964
osm:node:3227713126,node,3227713126.0,Red Gums,-35.4158245,141.1023163,VIC,,,,,,,,camp_site,osm_overpass,,,,,,,0,,,,,,,0,0,0,camp,0.6,0,2025-09-12T11:05:04.539964
osm:node:1811191129,node,1811191129.0,Oorindi Rest Area,-20.6424773,141.104229,QLD,,,,,,,,camp_site,osm_overpass,,,,,,,0,,,,,,,0,0,1,camp,0.6,0,2025-09-12T11:05:04.539964
osm:node:1382904277,node,1382904277.0,Wilson Hall,-38.0220104,141.1056361,VIC,,,,,,,,camp_site,osm_overpass,,,,,,,0,,,,,,,0,0,0,camp,0.6,0,2025-09-12T11:05:04.539964
osm:node:9429838469,node,9429838469.0,Boatramp Camp (unofficial),-34.1194667,141.1073816,VIC,,,,,,,,camp_site,osm_overpass,,,,,,,0,,,,,,,0,0,0,camp,0.6,0,2025-09-12T11:05:04.539964
osm:node:9429838468,node,9429838468.0,,-34.1194156,141.1101577,VIC,,,,,,,,camp_site,osm_overpass,,,,,,,0,,,,,,,0,0,0,camp,0.6,1,2025-09-12T11:05:04.539964
osm:node:9429838477,node,9429838477.0,,-34.1211143,141.1114452,VIC,,,,,,,,camp_site,osm_overpass,,,,,,,0,,,,,,,0,0,0,camp,0.6,1,2025-09-12T11:05:04.539964
osm:node:9429838478,node,9429838478.0,,-34.1212319,141.112443,VIC,,,,,,,,camp_site,osm_overpass,,,,,,,0,,,,,,,0,0,0,camp,0.6,1,2025-09-12T11:05:04.539964
osm:node:1676323193,node,1676323193.0,Glassy Meadows,-34.1218911,141.1134061,VIC,,,,,,,,camp_site,osm_overpass,,Victoria Parks,,,,,0,,,,,,,0,0,0,camp,0.6,0,2025-09-12T11:05:04.539964
osm:node:1811197621,node,1811197621.0,Thackaringa Rest Area,-32.0457532,141.1278069,NSW,,,,,,,,camp_site,osm_overpass,,,,,,,0,,,nsw_area_error:RetryError[<Future at 0x1069b2f30 state=finished raised ConnectionError>],,,,1,0,0,camp,0.6,0,2025-09-12T11:05:04.539964
osm:way:710456848,way,710456848.0,Leichhardt Lagoon Camping Park,-17.8511323,141.1283019,QLD,,,,,,,,camp_site,osm_overpass,,,,,,,0,,,,3NM87;06B15739;6B15739,2818710.0,qld_dcdb,0,0,1,camp,0.6,0,2025-09-12T11:05:04.539964
osm:node:1676320647,node,1676320647.0,,-34.1221131,141.1354271,VIC,,,,,,,,camp_site,osm_overpass,,,,,,,0,,,,,,,0,0,0,camp,0.6,1,2025-09-12T11:05:04.539964
osm:node:1811190825,node,1811190825.0,Norman River - Glenore Crossing,-17.8553742,141.1354566,QLD,,,,,,,,camp_site,osm_overpass,,,,,,,0,,,,4SP280675;5SP280675;2NM104;61SP112716,595881300.0,qld_dcdb,0,0,1,camp,0.6,0,2025-09-12T11:05:04.539964
osm:node:599198047,node,599198047.0,Forest Camp,-38.0308907,141.1390745,VIC,,,,,,,,camp_site,osm_overpass,,,,,,,0,,,,,,,0,0,0,camp,0.6,0,2025-09-12T11:05:04.539964
osm:node:1382891277,node,1382891277.0,Forest Camp North,-38.0298618,141.1403492,VIC,,,,,,,,camp_site,osm_overpass,,,,,,,0,,,,,,,0,0,0,camp,0.6,0,2025-09-12T11:05:04.539964
osm:way:73359088,way,73359088.0,The Caravan Track,-34.1319185,141.1442015,VIC,,,,,,,,,osm_overpass,,,,,,,0,,,,,,,0,0,0,unknown,0.6,1,2025-09-12T11:05:04.539964
osm:node:980292673,node,980292673.0,Devils Elbow,-34.0549067,141.152841,VIC,,,,,,,,camp_site,osm_overpass,,,,,,,0,,,,,,,0,0,0,camp,0.6,0,2025-09-12T11:05:04.539964
osm:node:1382894524,node,1382894524.0,Red Gum Landing,-38.0345097,141.1553026,VIC,,,,,,,,camp_site,osm_overpass,,,,,,,0,,,,,,,0,0,0,camp,0.6,0,2025-09-12T11:05:04.539964
osm:node:599201325,node,599201325.0,Site 1,-38.0463972,141.160793,VIC,,,,,,,,camp_site,osm_overpass,,,,,,,0,,,,,,,0,0,0,camp,0.6,0,2025-09-12T11:05:04.539964
osm:node:599201326,node,599201326.0,Site 2,-38.0464651,141.1609269,VIC,,,,,,,,camp_site,osm_overpass,,,,,,,0,,,,,,,0,0,0,camp,0.6,0,2025-09-12T11:05:04.539964
osm:way:46949845,way,46949845.0,Battersbys,-38.046336,141.1609721,VIC,,,,,,,,camp_site,osm_overpass,,,,,,,0,,,,,,,0,0,0,camp,0.6,0,2025-09-12T11:05:04.539964
osm:node:3227734684,node,3227734684.0,Cactus Bore,-35.4538285,141.161738,VIC,,,,,,,,camp_site,osm_overpass,,,,,,,0,,,,,,,0,0,0,camp,0.6,0,2025-09-12T11:05:04.539964
osm:node:1808393753,node,1808393753.0,Lake Bringalbert,-36.8324724,141.1623166,VIC,,,,,,,,camp_site,osm_overpass,,,,,,,0,,,,,,,0,0,0,camp,0.6,0,2025-09-12T11:05:04.539964
osm:node:1808391797,node,1808391797.0,Dartmoor Turnoff Rest Area,-38.07528,141.165,VIC,,,,,,,,camp_site,osm_overpass,,,,,,,0,,,,,,,0,0,0,camp,0.6,0,2025-09-12T11:05:04.539964
osm:node:1808391678,node,1808391678.0,Baileys Rocks Campground,-37.28806,141.17722,VIC,,,,,,,,camp_site,osm_overpass,,Parks Victoria,,,,,0,,,,,,,0,0,0,camp,0.6,0,2025-09-12T11:05:04.539964
osm:node:7738705094,node,7738705094.0,,-34.7155988,141.1797934,VIC,,,,,,,,camp_site,osm_overpass,,Parks Vic,,,,,0,,,,,,,0,0,0,camp,0.6,1,2025-09-12T11:05:04.539964
osm:node:316605846,node,316605846.0,Walkers Creek,-17.4701679,141.1806545,QLD,,,,,,,,camp_site,osm_overpass,,,,,,,0,,,,196CP857103,3830000000.0,qld_dcdb,0,0,1,camp,0.6,0,2025-09-12T11:05:04.539964
osm:node:1808392010,node,1808392010.0,Murrayville Lawn Caravan Park and Cabins - Bethune,-35.2658074,141.1812811,VIC,,,,,,,,camp_site,osm_overpass,,,,,,,0,,,,,,,0,0,0,holiday,0.6,0,2025-09-12T11:05:04.539964
osm:way:47033920,way,47033920.0,Lake Mombeong Campsite,-38.1345419,141.1851392,VIC,,,,,,,,camp_site,osm_overpass,,,,,,,0,,,,,,,0,0,0,camp,0.6,0,2025-09-12T11:05:04.539964
osm:node:1808391940,node,1808391940.0,Lake Monibeong Campground,-38.13389,141.18556,VIC,,,,,,,,camp_site,osm_overpass,,,,,,,0,,,,,,,0,0,0,camp,0.6,0,2025-09-12T11:05:04.539964
osm:node:9633304659,node,9633304659.0,Skipworth Springs Canoe Camp,-38.0523255,141.1902388,VIC,,,,,,,,camp_site,osm_overpass,,,,,,,0,,,,,,,0,0,0,camp,0.6,0,2025-09-12T11:05:04.539964
osm:node:1682785062,node,1682785062.0,,-34.1071197,141.2036488,VIC,,,,,,,,camp_site,osm_overpass,,,,,,,0,,,,,,,0,0,0,camp,0.6,1,2025-09-12T11:05:04.539964
osm:node:1811182873,node,1811182873.0,Lilley Vale Rest Area,-22.6039133,141.215118,QLD,,,,,,,,camp_site,osm_overpass,,,,,,,0,,,,1SP136844,317000000.0,qld_dcdb,0,0,1,camp,0.6,0,2025-09-12T11:05:04.539964
osm:node:1811175326,node,1811175326.0,Fort Grey Campground,-29.0874975,141.2152037,NSW,,,,,,,,camp_site,osm_overpass,,,,,,,0,,,nsw_area_error:RetryError[<Future at 0x106a12f70 state=finished raised ConnectionError>],,,,1,0,0,camp,0.6,0,2025-09-12T11:05:04.539964
osm:node:316599373,node,316599373.0,Pritchards Campground - Lower Glenelg NP,-38.0563554,141.2186404,VIC,,,,,,,,camp_site,osm_overpass,,,,,,,0,,,,,,,0,0,0,camp,0.6,0,2025-09-12T11:05:04.539964
osm:way:259487751,way,259487751.0,Penrose Park,-31.8812632,141.2298644,NSW,,,,,,,,camp_site,osm_overpass,,,,,,,0,,,nsw_area_error:RetryError[<Future at 0x1091db610 state=finished raised ConnectionError>],,,,1,0,0,camp,0.6,0,2025-09-12T11:05:04.539964
osm:node:1808392758,node,1808392758.0,Cullulleraine West Rest Area,-34.2748713,141.2316149,VIC,,,,,,,,camp_site,osm_overpass,,,,,,,0,,,,,,,0,0,0,camp,0.6,0,2025-09-12T11:05:04.539964
osm:node:10573803609,node,10573803609.0,Roadside Camp,-36.3777924,141.2316299,VIC,,,,,,,,camp_site,osm_overpass,,,,,,,0,,,,,,,0,0,0,camp,0.6,0,2025-09-12T11:05:04.539964
osm:node:1676319858,node,1676319858.0,Old Yards Camp Ground,-34.095442,141.2347557,VIC,,,,,,,,camp_site,osm_overpass,,,,,,,0,,,,,,,0,0,0,camp,0.6,0,2025-09-12T11:05:04.539964
osm:node:1808391934,node,1808391934.0,Lake Charlegrark Campground,-36.75222,141.23639,VIC,,,,,,,,camp_site,osm_overpass,,,,,,,0,,,,,,,0,0,0,camp,0.6,0,2025-09-12T11:05:04.539964
osm:way:1113180118,way,1113180118.0,Kaniva Caravan Park,-36.3813366,141.2399314,VIC,,,,,,,,caravan_site,osm_overpass,,,,,,,0,,,,,,,0,0,0,holiday,0.6,0,2025-09-12T11:05:04.539964
osm:node:3337274894,node,3337274894.0,Mouth of the Mullaroo Campsite,-34.0842675,141.2413558,VIC,,,,,,,,camp_site,osm_overpass,,,,,,,0,,,,,,,0,0,0,camp,0.6,0,2025-09-12T11:05:04.539964
osm:node:316598263,node,316598263.0,Murrayville East RA,-35.2617089,141.2501963,VIC,,,,,,,,camp_site,osm_overpass,,,,,,,0,,,,,,,0,0,0,camp,0.6,0,2025-09-12T11:05:04.539964
osm:node:1811172801,node,1811172801.0,Eldee Station,-31.6693884,141.2584651,NSW,,,,,,,,camp_site,osm_overpass,,,,,,,0,,,nsw_area_error:RetryError[<Future at 0x1094f8050 state=finished raised ConnectionError>],,,,1,0,0,camp,0.6,0,2025-09-12T11:05:04.539964
osm:node:3582035493,node,3582035493.0,Moleside Canoe Camp,-38.0544209,141.2687057,VIC,,,,,,,,camp_site,osm_overpass,,,,,,,0,,,,,,,0,0,0,camp,0.6,0,2025-09-12T11:05:04.539964
osm:node:1808391998,node,1808391998.0,Moleside Creek Picnic Area,-38.0544297,141.2712044,VIC,,,,,,,,camp_site,osm_overpass,,,,,,,0,,,,,,,0,0,0,camp,0.6,0,2025-09-12T11:05:04.539964
osm:node:1682785063,node,1682785063.0,,-34.0986978,141.2760491,VIC,,,,,,,,camp_site,osm_overpass,,,,,,,0,,,,,,,0,0,0,camp,0.6,1,2025-09-12T11:05:04.539964
osm:way:47012159,way,47012159.0,Dartmoor - Fort O'Hare Tourist Camping Reserve,-37.9255893,141.2839224,VIC,,,,,,,,camp_site,osm_overpass,,,,,,,0,,,,,,,0,0,0,camp,0.6,0,2025-09-12T11:05:04.539964
osm:node:1808391841,node,1808391841.0,Fort O'Hare Campground,-37.92583,141.285,VIC,,,,,,,,camp_site,osm_overpass,,,,,,,0,,,,,,,0,0,0,camp,0.6,0,2025-09-12T11:05:04.539964
osm:node:2398050557,node,2398050557.0,,-21.2724024,141.2893914,QLD,,,,,,,,caravan_site,osm_overpass,,,,,,,0,,,,9RP727013;601AL75;606AL75;409AL77;408AL77;407AL77;406AL77;405AL77;404AL77;403AL77;402AL77;1RP720529;301AL77;302AL77;303AL77;304AL77;305AL77;306AL77;307AL77;308AL77;309AL77;310AL77,45316.0,qld_dcdb,0,0,1,holiday,0.6,1,2025-09-12T11:05:04.539964
osm:node:1811201435,node,1811201435.0,Walkabout Hotel,-21.2726102,141.289767,QLD,,,,,,,,camp_site,osm_overpass,,,,,,,0,,,,601AL75;606AL75;405AL77;404AL77;403AL77;402AL77;301AL77;302AL77;303AL77;304AL77;305AL77;306AL77;307AL77;308AL77;309AL77;310AL77;41AL75,72838.0,qld_dcdb,0,0,1,camp,0.6,0,2025-09-12T11:05:04.539964
osm:node:1808391819,node,1808391819.0,"Edenhope Lake Wallace Recreation Ground""""",-37.03444,141.29611,VIC,,,,,,,,camp_site,osm_overpass,,,,,,,0,,,,,,,0,0,0,camp,0.6,0,2025-09-12T11:05:04.539964
osm:node:1793905717,node,1793905717.0,,-38.2153612,141.310192,VIC,,,,,,,,camp_site,osm_overpass,,,,,,,0,,,,,,,0,0,0,camp,0.6,1,2025-09-12T11:05:04.539964
osm:node:1793905725,node,1793905725.0,,-38.2148744,141.3107686,VIC,,,,,,,,camp_site,osm_overpass,,,,,,,0,,,,,,,0,0,0,camp,0.6,1,2025-09-12T11:05:04.539964
osm:node:1808392134,node,1808392134.0,Swan Lake Campground,-38.21361,141.31111,VIC,,,,,,,,camp_site,osm_overpass,,,,,,,0,,,,,,,0,0,0,camp,0.6,0,2025-09-12T11:05:04.539964
osm:node:1793905754,node,1793905754.0,,-38.2143875,141.3112139,VIC,,,,,,,,camp_site,osm_overpass,,,,,,,0,,,,,,,0,0,0,camp,0.6,1,2025-09-12T11:05:04.539964
osm:node:1793905751,node,1793905751.0,,-38.2146636,141.3112058,VIC,,,,,,,,camp_site,osm_overpass,,,,,,,0,,,,,,,0,0,0,camp,0.6,1,2025-09-12T11:05:04.539964
osm:node:1382949355,node,1382949355.0,,-38.2141325,141.3119395,VIC,,,,,,,,camp_site,osm_overpass,,,,,,,0,,,,,,,0,0,0,camp,0.6,1,2025-09-12T11:05:04.539964
osm:node:3227780063,node,3227780063.0,Big Billy,-35.5156369,141.3204336,VIC,,,,,,,,camp_site,osm_overpass,,,,,,,0,,,,,,,0,0,0,camp,0.6,0,2025-09-12T11:05:04.539964
osm:node:3227780086,node,3227780086.0,,-35.512004,141.32303,VIC,,,,,,,,camp_site,osm_overpass,,,,,,,0,,,,,,,0,0,0,camp,0.6,1,2025-09-12T11:05:04.539964
osm:node:11849765726,node,11849765726.0,Broughtons Waterhole,-36.5670064,141.3367038,VIC,,,,,,,,camp_site,osm_overpass,,,,,,,0,,,,,,,0,0,0,camp,0.6,0,2025-09-12T11:05:04.539964
osm:node:1808391820,node,1808391820.0,Edenhope North Rest Area,-37.00111,141.3475,VIC,,,,,,,,camp_site,osm_overpass,,,,,,,0,,,,,,,0,0,0,camp,0.6,0,2025-09-12T11:05:04.539964
osm:node:9687187841,node,9687187841.0,GSWW The Springs Camp,-38.3621578,141.370826,VIC,,,,,https://www.parks.vic.gov.au/places-to-see/sites/great-south-west-walk---springs-camping-area,,,camp_site,osm_overpass,,Parks Victoria,,,,,0,,,,,,,0,0,0,camp,0.6,0,2025-09-12T11:05:04.539964
osm:node:9789518349,node,9789518349.0,,-34.1330786,141.3857415,VIC,,,,,,,,camp_site,osm_overpass,,,,,,,0,,,,,,,0,0,0,camp,0.6,1,2025-09-12T11:05:04.539964
osm:node:1782109456,node,1782109456.0,Wright Horse Camp - Cobboboonee National Park,-38.0354908,141.3895485,VIC,,,,,,,,camp_site,osm_overpass,,,,,,,0,,,,,,,0,0,0,camp,0.6,0,2025-09-12T11:05:04.539964
osm:node:5213386323,node,5213386323.0,,-37.5814788,141.3978915,VIC,,,,,,,,camp_site,osm_overpass,,,,,,,0,,,,,,,0,0,0,camp,0.6,1,2025-09-12T11:05:04.539964
osm:node:1311413380,node,1311413380.0,Broken Bucket Tank,-35.9676212,141.3996089,VIC,,,,,,,,camp_site,osm_overpass,,,,,,,0,,,,,,,0,0,0,camp,0.6,0,2025-09-12T11:05:04.539964
osm:node:1171472419,node,1171472419.0,Casterton Council Caravan Park,-37.5812871,141.4053981,VIC,,,,,,,,camp_site,osm_overpass,,,,,,,0,,,,,,,0,0,0,holiday,0.6,0,2025-09-12T11:05:04.539964
osm:node:2337755189,node,2337755189.0,Scaddings Bridge Campground,-34.1056345,141.4227677,NSW,,,,,,,,camp_site,osm_overpass,,,,,,,0,,,nsw_area_error:RetryError[<Future at 0x10917fb50 state=finished raised ConnectionError>],,,,1,0,0,camp,0.6,0,2025-09-12T11:05:04.539964
osm:node:316599378,node,316599378.0,Jackass Fern Gully Campground - Cobboboonee SF,-38.0748152,141.4256401,VIC,,,,,,,,camp_site,osm_overpass,,,,,,,0,,,,,,,0,0,0,camp,0.6,0,2025-09-12T11:05:04.539964
osm:node:3316424080,node,3316424080.0,Pigeon Springs Campground,-35.5951708,141.4290996,VIC,,,,,,,,camp_site,osm_overpass,,,,,,,0,,,,,,,0,0,0,camp,0.6,0,2025-09-12T11:05:04.539964
osm:node:7234409620,node,7234409620.0,Broken Hill Caravans,-31.9650926,141.4325407,NSW,,,,,,,,,osm_overpass,,,,,,osm_overpass;osm_overpass,0,,,nsw_area_error:RetryError[<Future at 0x10919af30 state=finished raised ConnectionError>],,,,1,0,0,unknown,0.6,1,2025-09-12T11:05:04.539964
osm:way:372975932,way,372975932.0,Broken Hill Tourist Park,-31.9615225,141.4365571,NSW,,,,,https://www.brokenhilltouristpark.com.au/,,,caravan_site,osm_overpass,,,,,,,0,,,nsw_area_error:RetryError[<Future at 0x1091fec30 state=finished raised ConnectionError>],,,,1,0,0,holiday,0.6,0,2025-09-12T11:05:04.539964
osm:node:7234435004,node,7234435004.0,Broken Hill Tourist Park,-31.961265,141.4369991,NSW,,,,,,,,,osm_overpass,,,,,,,0,,,nsw_area_error:RetryError[<Future at 0x109143ee0 state=finished raised ConnectionError>],,,,1,0,0,unknown,0.6,1,2025-09-12T11:05:04.539964
osm:way:1157614307,way,1157614307.0,Starview Primitive Campsite,-31.9073243,141.4423455,NSW,,,,,,,,camp_site,osm_overpass,,,,,,,0,,,nsw_area_error:RetryError[<Future at 0x109329310 state=finished raised ConnectionError>],,,,1,0,0,camp,0.6,0,2025-09-12T11:05:04.539964
osm:node:1808391874,node,1808391874.0,Hiscocks Crossing,-37.93889,141.44667,VIC,,,,,,,,camp_site,osm_overpass,,,,,,,0,,,,,,,0,0,0,camp,0.6,0,2025-09-12T11:05:04.539964
osm:node:7199811485,node,7199811485.0,Tarragal Bushcamp,-38.3099573,141.4476161,VIC,,,,,,,,camp_site,osm_overpass,,Great South West Walk Volunteers,,,,,0,,,,,,,0,0,0,camp,0.6,0,2025-09-12T11:05:04.539964
osm:node:3227776394,node,3227776394.0,Brushcutters Flat,-35.4928061,141.4521944,VIC,,,,,,,,camp_site,osm_overpass,,,,,,,0,,,,,,,0,0,0,camp,0.6,0,2025-09-12T11:05:04.539964
osm:node:4974533079,node,4974533079.0,,-37.9446138,141.4598673,VIC,,,,,,,,camp_site,osm_overpass,,,,,,,0,,,,,,,0,0,0,camp,0.6,1,2025-09-12T11:05:04.539964
osm:node:9687219942,node,9687219942.0,GSWW Trewalla Camp,-38.3602853,141.462984,VIC,,,,,,,,camp_site,osm_overpass,,Parks Victoria,,,,,0,,,,,,,0,0,0,camp,0.6,0,2025-09-12T11:05:04.539964
osm:node:1808391943,node,1808391943.0,Lake Ratzcastle Camp Area,-36.8114254,141.465477,VIC,,,,,,,,camp_site,osm_overpass,,,,,,,0,,,,,,,0,0,0,camp,0.6,0,2025-09-12T11:05:04.539964
osm:way:1237461084,way,1237461084.0,Goroke Accomodation Park,-36.7206405,141.4669101,VIC,,,,,,,,camp_site,osm_overpass,,,,,,,0,,,,,,,0,0,0,camp,0.6,0,2025-09-12T11:05:04.539964
osm:node:9432340650,node,9432340650.0,,-37.9333188,141.4687996,VIC,,,,,,,,camp_site,osm_overpass,,,,,,,0,,,,,,,0,0,0,camp,0.6,1,2025-09-12T11:05:04.539964
osm:node:9432340651,node,9432340651.0,,-37.9313949,141.4760639,VIC,,,,,,,,camp_site,osm_overpass,,,,,,,0,,,,,,,0,0,0,camp,0.6,1,2025-09-12T11:05:04.539964
osm:node:1811163395,node,1811163395.0,Broken Hill Racecourse,-31.91333,141.48083,NSW,,,,,,,,camp_site,osm_overpass,,,,,,,0,,,nsw_area_error:RetryError[<Future at 0x1094f57d0 state=finished raised ConnectionError>],,,,1,0,0,camp,0.6,0,2025-09-12T11:05:04.539964
osm:way:775436987,way,775436987.0,Silverland Caravan Park,-31.9410254,141.4814765,NSW,,,,,,,,caravan_site,osm_overpass,,,,,,,0,,,nsw_area_error:RetryError[<Future at 0x1092ff050 state=finished raised ConnectionError>],,,,1,0,0,holiday,0.6,0,2025-09-12T11:05:04.539964
osm:node:1811197706,node,1811197706.0,Theldarpa Station,-29.65472,141.48306,NSW,,,,,,,,camp_site,osm_overpass,,,,,,,0,,,nsw_area_error:RetryError[<Future at 0x10951d7d0 state=finished raised ConnectionError>],,,,1,0,0,camp,0.6,0,2025-09-12T11:05:04.539964
osm:way:67018985,way,67018985.0,Lakeview Caravan Park,-31.9430013,141.4875169,NSW,,,,,http://lakeviewbrokenhill.com/,,,caravan_site,osm_overpass,,,,,,,0,,,,6015/DP705015;6014/DP705015;3818/DP757298;3819/DP757298;7323/DP1201053;1/DP1280318;3820/DP45047,907522.83,nsw_dcdb,0,0,0,holiday,0.6,0,2025-09-12T11:05:04.539964
osm:node:3227742484,node,3227742484.0,White Springs,-35.3952634,141.4890861,VIC,,,,,,,,camp_site,osm_overpass,,,,,,,0,,,,,,,0,0,0,camp,0.6,0,2025-09-12T11:05:04.539964
osm:node:9432340652,node,9432340652.0,,-37.9338658,141.490344,VIC,,,,,,,,camp_site,osm_overpass,,,,,,,0,,,,,,,0,0,0,camp,0.6,1,2025-09-12T11:05:04.539964
osm:node:1808392132,node,1808392132.0,Surrey Ridge Campground,-38.18389,141.50417,VIC,,,,,,,,camp_site,osm_overpass,,,,,,,0,,,,,,,0,0,0,camp,0.6,0,2025-09-12T11:05:04.539964
osm:node:9432340671,node,9432340671.0,,-37.9345504,141.506388,VIC,,,,,,,,camp_site,osm_overpass,,,,,,,0,,,,,,,0,0,0,camp,0.6,1,2025-09-12T11:05:04.539964
osm:node:3337769584,node,3337769584.0,Camping and Picnic area,-34.207804,141.5140797,VIC,,,,,,,,camp_site,osm_overpass,,,,,,,0,,,,,,,0,0,0,camp,0.6,0,2025-09-12T11:05:04.539964
osm:node:9432340670,node,9432340670.0,,-37.932705,141.5150088,VIC,,,,,,,,camp_site,osm_overpass,,,,,,,0,,,,,,,0,0,0,camp,0.6,1,2025-09-12T11:05:04.539964
osm:node:1811194058,node,1811194058.0,Round Hill Rest Area,-31.9375108,141.5181898,NSW,,,,,,,,camp_site,osm_overpass,,,,,,,0,,,,7314/DP1185108;7320/DP1201053,11429754.1,nsw_dcdb,0,0,0,camp,0.6,0,2025-09-12T11:05:04.539964
osm:node:9789585166,node,9789585166.0,,-34.1971504,141.5412372,VIC,,,,,,,,camp_site,osm_overpass,,,,,,,0,,,,,,,0,0,0,camp,0.6,1,2025-09-12T11:05:04.539964
osm:node:9789585121,node,9789585121.0,,-34.2008773,141.5454188,VIC,,,,,,,,camp_site,osm_overpass,,,,,,,0,,,,,,,0,0,0,camp,0.6,1,2025-09-12T11:05:04.539964
osm:node:5443898822,node,5443898822.0,Merino Showgrounds,-37.7109773,141.5458167,VIC,,,,,,,,camp_site,osm_overpass,,,,,,,0,,,,,,,0,0,0,camp,0.6,0,2025-09-12T11:05:04.539964
osm:node:1811179184,node,1811179184.0,"""Hotel Hilton""",-22.35306,141.54972,QLD,,,,,,,,camp_site,osm_overpass,,,,,,,0,,,,23WDK31;101M4831;102M4831;103M4831;104M4831;108M4831;109M4831;110M4831;401M4831;402M4831;403M4831;404M4831;407M4831;408M4831;409M4831;410M4831,291876.0,qld_dcdb,0,0,1,camp,0.6,0,2025-09-12T11:05:04.539964
osm:node:8543395225,node,8543395225.0,GSWW Mallee Hike-In Camp,-38.4266178,141.549925,VIC,,,,,,,,camp_site,osm_overpass,,Parks Victoria,,,,,0,,,,,,,0,0,0,camp,0.6,0,2025-09-12T11:05:04.539964
osm:node:1811192182,node,1811192182.0,Pincally Station,-30.1905397,141.5533418,NSW,,,,,,,,camp_site,osm_overpass,,,,,,,0,,,,477/DP761339,617653611.49,nsw_dcdb,0,0,0,camp,0.6,0,2025-09-12T11:05:04.539964
osm:node:1811187425,node,1811187425.0,Mount Gipps Station,-31.6298111,141.5569228,NSW,,,,,,,,camp_site,osm_overpass,,,,,,,0,,,,1/DP1257327,259824753.87,nsw_dcdb,0,0,0,camp,0.6,0,2025-09-12T11:05:04.539964
osm:node:1808391881,node,1808391881.0,Hotspur Bridge (Crawford River),-37.92583,141.56111,VIC,,,,,,,,camp_site,osm_overpass,,,,,,,0,,,,,,,0,0,0,camp,0.6,0,2025-09-12T11:05:04.539964
osm:node:1808391670,node,1808391670.0,Annya Road Picnic Area,-38.01861,141.58278,VIC,,,,,,,,camp_site,osm_overpass,,,,,,,0,,,,,,,0,0,0,camp,0.6,0,2025-09-12T11:05:04.539964
osm:way:329819937,way,329819937.0,Bushmans Rest Caravan Park,-34.2724489,141.5869728,VIC,,,,,https://www.bushmansrest.com.au/,+61 3 5028 2252,,caravan_site,osm_overpass,,,,,,,0,,,,,,,0,0,0,holiday,0.6,0,2025-09-12T11:05:04.539964
osm:node:1808391902,node,1808391902.0,Johnny Mullagh Park Camping Ground,-37.1702108,141.5894978,VIC,,,,,,,,camp_site,osm_overpass,,Johnny Mullagh Committee,,,,,0,,,,,,,0,0,0,camp,0.6,0,2025-09-12T11:05:04.539964
osm:node:2105486998,node,2105486998.0,Rest Area,-35.1987619,141.5907743,VIC,,,,,,,,camp_site,osm_overpass,,,,,,,0,,,,,,,0,0,0,camp,0.6,0,2025-09-12T11:05:04.539964
osm:node:9657528933,node,9657528933.0,Werrimull Campground,-34.387357,141.5941074,VIC,,,,,,,,camp_site,osm_overpass,,Mildura Rural City,,,,,0,,,,,,,0,0,0,camp,0.6,0,2025-09-12T11:05:04.539964
osm:node:1808393802,node,1808393802.0,Lock 9,-34.19167,141.59417,VIC,,,,,,,,camp_site,osm_overpass,,,,,,,0,,,,,,,0,0,0,camp,0.6,0,2025-09-12T11:05:04.539964
osm:node:9753556382,node,9753556382.0,Broken Hill Outback Resort,-31.896164,141.5979187,NSW,,,,,https://www.brokenhilloutbackresort.com.au,,,camp_site,osm_overpass,,,,,,,0,,,,1/DP757307;2/DP864275;1/DP1245956;2/DP1245956;4/DP864275,2600523.0,nsw_dcdb,0,0,0,camp,0.6,0,2025-09-12T11:05:04.539964
osm:way:189986743,way,189986743.0,Portland Claremont Tourist Park,-38.3298025,141.5997163,VIC,,,,,https://www.toptouristparks.com.au/parks/victoria/portland/73-portland-tourist-park,,,caravan_site,osm_overpass,,,,,,,0,,,,,,,0,0,0,holiday,0.6,0,2025-09-12T11:05:04.539964
osm:node:2480848495,node,2480848495.0,Portland Holiday Village,-38.349376,141.602254,VIC,,,,,,,,caravan_site,osm_overpass,,,,,,,0,,,,,,,0,0,0,built_community,0.6,0,2025-09-12T11:05:04.539964
osm:way:329818333,way,329818333.0,Tranquill Waters Cullulleraine,-34.2753005,141.6031366,VIC,5302,Sturt Highway,Cullulleraine,3496.0,http://www.tranquilwaterscullulleraine.com.au/,,,camp_site,osm_overpass,,,,,,,0,,,,,,,0,0,0,camp,0.6,0,2025-09-12T11:05:04.539964
osm:node:1811189312,node,1811189312.0,Mungkan River Camping Area,-14.85861,141.60361,QLD,,,,,,,,camp_site,osm_overpass,,,,,,,0,,,,5SP270888,4090000000.0,qld_dcdb,0,0,1,camp,0.6,0,2025-09-12T11:05:04.539964
osm:node:1662269577,node,1662269577.0,Portland Bay Holiday Park,-38.3384911,141.6068327,VIC,,,,,,,,,osm_overpass,,Portland Cable Trams,,,,,0,,,,,,,0,0,0,unknown,0.6,1,2025-09-12T11:05:04.539964
osm:node:5076512721,node,5076512721.0,,-38.3547622,141.6070691,VIC,,,,,,,,camp_site,osm_overpass,,,,,,,0,,,,,,,0,0,0,camp,0.6,1,2025-09-12T11:05:04.539964
osm:way:152977879,way,152977879.0,Portland Bay Holiday Park,-38.3377244,141.6079031,VIC,184,Bentinck Street,Portland,3305.0,www.victorbhp.com.au,+61 3 5523 1487,info@victorbhp.com.au,caravan_site,osm_overpass,,,,,,,0,,,,,,,0,0,0,holiday,0.6,0,2025-09-12T11:05:04.539964
osm:node:3316466243,node,3316466243.0,Milmed Swamp Campsite,-35.6489284,141.6081156,VIC,,,,,,,,camp_site,osm_overpass,,,,,,,0,,,,,,,0,0,0,camp,0.6,0,2025-09-12T11:05:04.539964
osm:way:192882236,way,192882236.0,Henty Bay Holiday Park,-38.2998781,141.6203949,VIC,,,,,,,,caravan_site,osm_overpass,,,,,,,0,,,,,,,0,0,0,holiday,0.6,0,2025-09-12T11:05:04.539964
osm:node:1811164311,node,1811164311.0,Chapman River,-14.91667,141.62167,QLD,,,,,,,,camp_site,osm_overpass,,,,,,,0,,,,186SP270888;273SP270888;521SP270888,862843.0,qld_dcdb,0,0,1,camp,0.6,0,2025-09-12T11:05:04.539964
osm:node:1811187391,node,1811187391.0,Morney Rest Area,-25.3804687,141.6240478,QLD,,,,,,,,camp_site,osm_overpass,,,,,,,0,,,,,,,0,0,1,camp,0.6,0,2025-09-12T11:05:04.539964
osm:node:3762344098,node,3762344098.0,Underbool Track Camping Area,-34.8910281,141.6269832,VIC,,,,,,,,camp_site,osm_overpass,,Parks Victoria,,,,,0,,,,,,,0,0,0,camp,0.6,0,2025-09-12T11:05:04.539964
osm:way:402794827,way,402794827.0,Pinewood Caravan Park,-38.1240588,141.6340416,VIC,,,,,,,,caravan_site,osm_overpass,,,,,,,0,,,,,,,0,0,0,holiday,0.6,0,2025-09-12T11:05:04.539964
osm:node:1811192499,node,1811192499.0,Popiltah Rest Area,-33.0673189,141.6434534,NSW,,,,,,,,camp_site,osm_overpass,,,,,,,0,,,,3969/DP766442,672989521.7,nsw_dcdb,0,0,0,camp,0.6,0,2025-09-12T11:05:04.539964
osm:node:6417650924,node,6417650924.0,Nhill Caravan Park,-36.339244,141.6448453,VIC,,,,,,,,,osm_overpass,,,,,,,0,,,,,,,0,0,0,unknown,0.6,1,2025-09-12T11:05:04.539964
osm:node:6417650919,node,6417650919.0,Nhill Caravan Park,-36.3395919,141.6453017,VIC,,,,,,,,,osm_overpass,,,,,,,0,,,,,,,0,0,0,unknown,0.6,1,2025-09-12T11:05:04.539964
osm:way:684936791,way,684936791.0,Nhill Caravan Park,-36.3402404,141.6454861,VIC,93,Victoria street,Nhill,3418.0,https://nhillcaravanpark.com/,+61 3 5391 1683,nhillcp@gmail.com,camp_site,osm_overpass,,,,,,,0,,,,,,,0,0,0,holiday,0.6,0,2025-09-12T11:05:04.539964
osm:node:316599386,node,316599386.0,Sawpit Campground - Mt Clay State Forest,-38.2349954,141.6879871,VIC,,,,,,,,camp_site,osm_overpass,,,,,,,0,,,,,,,0,0,0,camp,0.6,0,2025-09-12T11:05:04.539964
osm:node:1808391784,node,1808391784.0,Coleraine Caravan Park,-37.59722,141.69139,VIC,,,,,,,,camp_site,osm_overpass,,,,,,,0,,,,,,,0,0,0,holiday,0.6,0,2025-09-12T11:05:04.539964
osm:node:595868795,node,595868795.0,Coleraine Caravan Park,-37.5972761,141.691524,VIC,,,,,,,,caravan_site,osm_overpass,,,,,,,0,,,,,,,0,0,0,holiday,0.6,0,2025-09-12T11:05:04.539964
osm:way:143036661,way,143036661.0,Caravan Park Road,-38.2576044,141.698303,VIC,,,,,,,,,osm_overpass,,,,,,,0,,,,,,,0,0,0,unknown,0.6,1,2025-09-12T11:05:04.539964
osm:node:1811175363,node,1811175363.0,Fowlers Gap,-31.10194,141.70194,NSW,,,,,,,,camp_site,osm_overpass,,,,,,,0,,,,2/DP1265153,529996410.62,nsw_dcdb,0,0,0,camp,0.6,0,2025-09-12T11:05:04.539964
osm:way:641925336,way,641925336.0,Caravan Park Road,-38.2572119,141.7042662,VIC,,,,,,,,,osm_overpass,,,,,,,0,,,,,,,0,0,0,unknown,0.6,1,2025-09-12T11:05:04.539964
osm:way:192884749,way,192884749.0,,-38.2571322,141.7047235,VIC,,,,,,,,caravan_site,osm_overpass,,,,,,,0,,,,,,,0,0,0,holiday,0.6,1,2025-09-12T11:05:04.539964
osm:node:5002954857,node,5002954857.0,,-34.909753,141.704898,VIC,,,,,,,,camp_site,osm_overpass,,,,,,,0,,,,,,,0,0,0,camp,0.6,1,2025-09-12T11:05:04.539964
osm:way:372682982,way,372682982.0,Mount Crozier Camping Area,-34.909705,141.7054795,VIC,,,,,,,,camp_site,osm_overpass,,Parks Victoria,,,,,0,,,,,,,0,0,0,camp,0.6,0,2025-09-12T11:05:04.539964
osm:node:3316511494,node,3316511494.0,Arnold Springs Campground,-35.6453582,141.7130183,VIC,,,,,,,,camp_site,osm_overpass,,,,,,,0,,,,,,,0,0,0,camp,0.6,0,2025-09-12T11:05:04.539964
osm:node:5002954855,node,5002954855.0,Lake Becking Camping Area,-35.0391144,141.7154102,VIC,,,,,,,,camp_site,osm_overpass,,,,,,,0,,,,,,,0,0,0,camp,0.6,0,2025-09-12T11:05:04.539964
osm:node:3316510649,node,3316510649.0,Round Swamp Campground,-35.7106285,141.7190468,VIC,,,,,,,,camp_site,osm_overpass,,,,,,,0,,,,,,,0,0,0,camp,0.6,0,2025-09-12T11:05:04.539964
osm:node:1808393494,node,1808393494.0,Jane Duff Highway Park,-36.73306,141.7225,VIC,,,,,,,,camp_site,osm_overpass,,,,,,,0,,,,,,,0,0,0,camp,0.6,0,2025-09-12T11:05:04.539964
osm:node:1808391953,node,1808391953.0,Lakes Crosbie Campground,-35.0558064,141.7301229,VIC,,,,,,,,camp_site,osm_overpass,,,,,,,0,,,,,,,0,0,0,camp,0.6,0,2025-09-12T11:05:04.539964
osm:node:1811175325,node,1811175325.0,Fort Courage Angling & Caravan Park -,-34.0894524,141.7336538,NSW,,,,,,,,camp_site,osm_overpass,,,,,,,0,,,nsw_area_error:RetryError[<Future at 0x10951c0d0 state=finished raised ConnectionError>],,,,1,0,0,holiday,0.6,0,2025-09-12T11:05:04.539964
osm:node:1811192143,node,1811192143.0,Pimpara Lake,-30.42194,141.73389,NSW,,,,,,,,camp_site,osm_overpass,,,,,,,0,,,nsw_area_error:RetryError[<Future at 0x10953c650 state=finished raised ConnectionError>],,,,1,0,0,camp,0.6,0,2025-09-12T11:05:04.539964
osm:node:1811179871,node,1811179871.0,Julia Creek Caravan Park,-20.6525,141.74472,QLD,,,,,,,,camp_site,osm_overpass,,,,,,,0,,,,2008JC55715;37JC55715;32JC55715;35EN98;36EN98;29SP232864;31JC55715;44JC55715;142SP151986;141SP151986;20JC55715;39JC55715;28SP147785;16SP147785;17SP245650;19SP245650;36JC55715;35JC55715;18SP245650;20SP245650;43JC55715,60858.0,qld_dcdb,0,0,1,holiday,0.6,0,2025-09-12T11:05:04.539964
osm:node:1811163554,node,1811163554.0,Bunnerungee Bridge,-33.580198,141.751414,NSW,,,,,,,,camp_site,osm_overpass,,,,,,,0,,,nsw_area_error:RetryError[<Future at 0x10953ded0 state=finished raised ConnectionError>],,,,1,0,0,camp,0.6,0,2025-09-12T11:05:04.539964
osm:node:1811179908,node,1811179908.0,Julia Creek,-20.6558183,141.7561414,QLD,,,,,,,,camp_site,osm_overpass,,,,,,,0,,,,57SP319362;57SP319362,17200000.0,qld_dcdb,0,0,1,camp,0.6,0,2025-09-12T11:05:04.539964
osm:node:3762366470,node,3762366470.0,Mopoke Hut Camping Area,-34.8115897,141.7595777,VIC,,,,,,,,camp_site,osm_overpass,,Parks Victoria,,,,,0,,,,,,,0,0,0,camp,0.6,0,2025-09-12T11:05:04.539964
osm:node:600217299,node,600217299.0,Fitzroy River,-38.2236067,141.7624787,VIC,,,,,,,,camp_site,osm_overpass,,,,,,,0,,,,,,,0,0,0,camp,0.6,0,2025-09-12T11:05:04.539964
osm:node:1808392185,node,1808392185.0,Wallpolla Island,-34.1538164,141.7790708,VIC,,,,,,,,camp_site,osm_overpass,,,,,,,0,,,,,,,0,0,0,camp,0.6,0,2025-09-12T11:05:04.539964
osm:node:1811187398,node,1811187398.0,Mount Browne Station,-29.79778,141.78694,NSW,,,,,,,,camp_site,osm_overpass,,,,,,,0,,,nsw_area_error:RetryError[<Future at 0x10953f750 state=finished raised ConnectionError>],,,,1,0,0,camp,0.6,0,2025-09-12T11:05:04.539964
osm:node:1811186862,node,1811186862.0,Milpara Rest Area,-33.9262738,141.7957452,NSW,,,,,,,,camp_site,osm_overpass,,,,,,,0,,,nsw_area_error:RetryError[<Future at 0x10953ea50 state=finished raised ConnectionError>],,,,1,0,0,camp,0.6,0,2025-09-12T11:05:04.539964
osm:way:36706958,way,36706958.0,Kiata Campground,-36.4466318,141.7980792,VIC,,,,,,,,camp_site,osm_overpass,,,,,,,0,,,,,,,0,0,0,camp,0.6,0,2025-09-12T11:05:04.539964
osm:node:1808391736,node,1808391736.0,Branxholme Rest Area,-37.85806,141.8025,VIC,,,,,,,,camp_site,osm_overpass,,,,,,,0,,,,,,,0,0,0,camp,0.6,0,2025-09-12T11:05:04.539964
osm:node:1808392173,node,1808392173.0,Underbool Rest Area,-35.1695179,141.809875,VIC,,,,,,,,camp_site,osm_overpass,,,,,,,0,,,,,,,0,0,0,camp,0.6,0,2025-09-12T11:05:04.539964
osm:node:1808391993,node,1808391993.0,Merrinee North Rest Area,-34.2601004,141.8245187,VIC,,,,,,,,camp_site,osm_overpass,,,,,,,0,,,,,,,0,0,0,camp,0.6,0,2025-09-12T11:05:04.539964
osm:way:372682983,way,372682983.0,Rocket Lake Camping Area,-34.6381458,141.8316071,VIC,,,,,,,,camp_site,osm_overpass,,Parks Victoria,,,,,0,,,,,,,0,0,0,camp,0.6,0,2025-09-12T11:05:04.539964
osm:node:5002954856,node,5002954856.0,,-34.9588969,141.8331906,VIC,,,,,,,,camp_site,osm_overpass,,,,,,,0,,,,,,,0,0,0,camp,0.6,1,2025-09-12T11:05:04.539964
osm:way:465568675,way,465568675.0,,-37.2463713,141.8408168,VIC,,,,,,,,camp_site,osm_overpass,,,,,,,0,,,,,,,0,0,0,camp,0.6,1,2025-09-12T11:05:04.539964
osm:node:1454710802,node,1454710802.0,Wannon River Holiday Park,-37.6682621,141.8410676,VIC,,,,,,+61 3 5570 8226,,caravan_site,osm_overpass,,,,,,,0,,,,,,,0,0,0,holiday,0.6,0,2025-09-12T11:05:04.539964
osm:node:316599253,node,316599253.0,Wannon Falls Campground,-37.6745127,141.846983,VIC,,,,,,,,camp_site,osm_overpass,,,,,,,0,,,,,,,0,0,0,camp,0.6,0,2025-09-12T11:05:04.539964
osm:way:341098664,way,341098664.0,The Pines - Centenary Park Campground,-36.7597754,141.8481063,VIC,,,,,,,,camp_site,osm_overpass,,Parks Victoria,,,,,0,,,,,,,0,0,0,camp,0.6,0,2025-09-12T11:05:04.539964
osm:node:1808391836,node,1808391836.0,Fitzroy River Reserve,-38.25801,141.8484991,VIC,,,,,,,,camp_site,osm_overpass,,,,,,,0,,,,,,,0,0,0,camp,0.6,0,2025-09-12T11:05:04.539964
osm:way:341098666,way,341098666.0,Upper Gums - Centenary Park Campground,-36.7585282,141.8485756,VIC,,,,,,,,camp_site,osm_overpass,,Parks Victoria,,,,,0,,,,,,,0,0,0,camp,0.6,0,2025-09-12T11:05:04.539964
osm:way:341098663,way,341098663.0,Lower Gums - Centenary Park Campground,-36.7579179,141.8499673,VIC,,,,,,,,camp_site,osm_overpass,,Parks Victoria,,,,,0,,,,,,,0,0,0,camp,0.6,0,2025-09-12T11:05:04.539964
osm:node:1811204065,node,1811204065.0,Weipa Camping Ground & Fishing Lodge -,-12.6384773,141.8607228,QLD,,,,,,,,camp_site,osm_overpass,,,,,,,0,,,,7024MP41159;172MPH36253;7024MP41159;7024MP41159;558MP38239;7024MP41159;7024MP41159,96330.0,qld_dcdb,0,0,1,camp,0.6,0,2025-09-12T11:05:04.539964
osm:node:4082625703,node,4082625703.0,Fulham Streamside reserve,-37.1494115,141.8632471,VIC,,,,,,,,camp_site,osm_overpass,,,,,,,0,,,,,,,0,0,0,camp,0.6,0,2025-09-12T11:05:04.539964
osm:node:1115267582,node,1115267582.0,Olive Downs Campsite,-29.0590676,141.8634381,NSW,,,,,,,,camp_site,osm_overpass,,,,,,,0,,,nsw_area_error:RetryError[<Future at 0x10953de50 state=finished raised ConnectionError>],,,,1,0,0,camp,0.6,0,2025-09-12T11:05:04.539964
osm:node:4066622661,node,4066622661.0,,-22.9245597,141.8723118,QLD,,,,,,,,camp_site,osm_overpass,,,,,,,0,,,,351SP276167,1220000000.0,qld_dcdb,0,0,1,camp,0.6,1,2025-09-12T11:05:04.539964
osm:node:2909005261,node,2909005261.0,Yellow Gum Camp,-36.5545526,141.8729907,VIC,,,,,,,,camp_site,osm_overpass,,,,,,,0,,,,,,,0,0,0,camp,0.6,0,2025-09-12T11:05:04.539964
osm:node:7738705098,node,7738705098.0,The Wattles,-35.9475024,141.8734344,VIC,,,,,,,,camp_site,osm_overpass,,,,,,,0,,,,,,,0,0,0,camp,0.6,0,2025-09-12T11:05:04.539964
osm:node:9794069542,node,9794069542.0,,-34.1517137,141.8791124,VIC,,,,,,,,camp_site,osm_overpass,,,,,,,0,,,,,,,0,0,0,camp,0.6,1,2025-09-12T11:05:04.539964
osm:node:9794069266,node,9794069266.0,,-34.1546514,141.8799895,VIC,,,,,,,,camp_site,osm_overpass,,,,,,,0,,,,,,,0,0,0,camp,0.6,1,2025-09-12T11:05:04.539964
osm:way:1428531043,way,1428531043.0,Milparinka Evelyn Creek Caravan and Camping,-29.7386015,141.8857575,NSW,,,,,,,,caravan_site,osm_overpass,,,,,,,0,,,,11/DP758680;3/DP719260;2/DP758680;1/DP758680;4805/DP769020;7010/DP1115110,10743546.32,nsw_dcdb,0,0,0,holiday,0.6,0,2025-09-12T11:05:04.539964
osm:node:1811179315,node,1811179315.0,JC Hotel Ruins,-25.37722,141.89861,QLD,,,,,,,,camp_site,osm_overpass,,,,,,,0,,,,102C2961;104C2961;105C2961;106C2961;107C2961;108C2961;109C2961;605C2962;201C2962;2GE34;103C2961;2GE34,19560470.0,qld_dcdb,0,0,1,camp,0.6,0,2025-09-12T11:05:04.539964
osm:node:1811183591,node,1811183591.0,Lock 10,-34.10972,141.90389,NSW,,,,,,,,camp_site,osm_overpass,,,,,,,0,,,nsw_area_error:RetryError[<Future at 0x10953ccd0 state=finished raised ConnectionError>],,,,1,0,0,camp,0.6,0,2025-09-12T11:05:04.539964
osm:node:3369555987,node,3369555987.0,Snow Drift Picnic and Camping Area,-35.4317405,141.9116433,VIC,,,,,,,,camp_site,osm_overpass,,Parks Victoria,,,,,0,,,,,,,0,0,0,camp,0.6,0,2025-09-12T11:05:04.539964
osm:way:368124497,way,368124497.0,Wanderers Crossing River Retreat,-34.1106228,141.9184654,NSW,,,,,,,,camp_site,osm_overpass,,,,,,,0,,,,6/DP759074;5/DP759074;4/DP759074;3/DP759074;2A/DP759074;1A/DP759074;2/DP759074;19/DP759074;2/DP1121941;1/DP1121941,97786.08,nsw_dcdb,0,0,0,camp,0.6,0,2025-09-12T11:05:04.539964
osm:node:1811181592,node,1811181592.0,Kynuna Roadhouse,-21.578949,141.9192544,QLD,,,,,,,,camp_site,osm_overpass,,,,,,,0,,,,18G24965;402K3711;401K3711;410K3711;409K3711;205K3711;204K3711;203K3711;202K3711;206K3711;305K3711;303K3711;304K3711;201K3711;11K3715;12K3715;13K3715;4K37113,32084.0,qld_dcdb,0,0,1,camp,0.6,0,2025-09-12T11:05:04.539964
osm:node:316606124,node,316606124.0,Kynuna Caravan Park,-21.5788043,141.9194717,QLD,,,,,,,,caravan_site,osm_overpass,,,,,,,0,,,,18G24965;401K3711;410K3711;501K3711;205K3711;204K3711;203K3711;202K3711;206K3711;305K3711;302K3711;303K3711;304K3711;201K3711;11K3715;12K3715;13K3715;4K37113;10K37113,33096.0,qld_dcdb,0,0,1,holiday,0.6,0,2025-09-12T11:05:04.539964
osm:node:316606132,node,316606132.0,Blue Heeler Caravan Park,-21.5779853,141.9225966,QLD,,,,,,,,caravan_site,osm_overpass,,,,,,,0,,,,310K3711;1SP326353;607K3715;1RP707218;601K3715;602K3715;603K3715;604K3713;605K3713;11K37114;801K3713;810K3713;2RP707218,39862.0,qld_dcdb,0,0,1,holiday,0.6,0,2025-09-12T11:05:04.539964
osm:node:1811162897,node,1811162897.0,Blue Heeler Caravan Park,-21.5780691,141.9230699,QLD,,,,,,,,camp_site,osm_overpass,,Blue Heeler Hotel,,,,,0,,,,1SP326353;1RP707218;601K3715;602K3715;603K3715;604K3713;605K3713;105K3711;11K37114;801K3713;802K3713;803K3713;809K3713;810K3713;701K3713;808K3713;2RP707218,48333.0,qld_dcdb,0,0,1,holiday,0.6,0,2025-09-12T11:05:04.539964
osm:way:46868840,way,46868840.0,Budj Bim Campground,-38.0563988,141.9230525,VIC,,,,,,,,camp_site,osm_overpass,,,,,,,0,,,,,,,0,0,0,camp,0.6,0,2025-09-12T11:05:04.539964
osm:node:2909005260,node,2909005260.0,Mallee Camp,-36.4796972,141.923369,VIC,,,,,,,,camp_site,osm_overpass,,,,,,,0,,,,,,,0,0,0,camp,0.6,0,2025-09-12T11:05:04.539964
osm:node:9793996777,node,9793996777.0,,-34.1330442,141.9254865,VIC,,,,,,,,camp_site,osm_overpass,,,,,,,0,,,,,,,0,0,0,camp,0.6,1,2025-09-12T11:05:04.539964
osm:way:36843934,way,36843934.0,Four Mile Beach Campsite,-36.1325682,141.9282297,VIC,,,,,,,,camp_site,osm_overpass,,,,,,,0,,,,,,,0,0,0,camp,0.6,0,2025-09-12T11:05:04.539964
osm:node:316599441,node,316599441.0,Western Beach Campground - Lake Albacutya Regional Park,-35.7804513,141.9358507,VIC,,,,,,,,camp_site,osm_overpass,,,,,,,0,,,,,,,0,0,0,camp,0.6,0,2025-09-12T11:05:04.539964
osm:node:1808393892,node,1808393892.0,Natimuk Lake Caravan Park,-36.7155804,141.9419386,VIC,,,,,,+61 407 800 753,,camp_site,osm_overpass,,,,,,,0,,,,,,,0,0,0,holiday,0.6,0,2025-09-12T11:05:04.539964
osm:node:3764718340,node,3764718340.0,Packsaddle Roadhouse,-30.6108071,141.9669577,NSW,,,,,https://www.packsaddleroadhouse.com.au/,,,camp_site,osm_overpass,,,,,,,0,,,,4/DP1125141;3/DP1125141;1/DP1125141;21/DP1216364,557299451.7,nsw_dcdb,0,0,0,camp,0.6,0,2025-09-12T11:05:04.539964
osm:node:9791880904,node,9791880904.0,,-34.1139875,141.9743952,VIC,,,,,,,,camp_site,osm_overpass,,,,,,,0,,,,,,,0,0,0,camp,0.6,1,2025-09-12T11:05:04.539964
osm:node:9791880681,node,9791880681.0,,-34.1128838,141.9776192,VIC,,,,,,,,camp_site,osm_overpass,,,,,,,0,,,,,,,0,0,0,camp,0.6,1,2025-09-12T11:05:04.539964
osm:node:9791880890,node,9791880890.0,,-34.1125252,141.9800855,VIC,,,,,,,,camp_site,osm_overpass,,,,,,,0,,,,,,,0,0,0,camp,0.6,1,2025-09-12T11:05:04.539964
osm:node:1808391972,node,1808391972.0,Lochiel Rest Area,-36.41833,141.98111,VIC,,,,,,,,camp_site,osm_overpass,,,,,,,0,,,,,,,0,0,0,camp,0.6,0,2025-09-12T11:05:04.539964
osm:node:1808391895,node,1808391895.0,Jeparit Caravan Park,-36.14472,141.98417,VIC,,,,,,,,camp_site,osm_overpass,,,,,,,0,,,,,,,0,0,0,holiday,0.6,0,2025-09-12T11:05:04.539964
osm:way:36843925,way,36843925.0,Jeparit Caravan Park,-36.1445843,141.9844739,VIC,,,,,,,,caravan_site,osm_overpass,,,,,,,0,,,,,,,0,0,0,holiday,0.6,0,2025-09-12T11:05:04.539964
osm:node:4919888223,node,4919888223.0,,-34.1115985,141.9854443,NSW,,,,,,,,camp_site,osm_overpass,,,,,,,0,,,,4/DP729494;24/DP729494;5/DP729494;32/DP729494;2/DP811025;1/DP811025;25/DP729494;2/DP729494;26/DP729494;3/DP729494;28/DP729494;31/DP729494;27/DP729494;1/DP117894;2/DP117894,61385.98,nsw_dcdb,0,0,0,camp,0.6,1,2025-09-12T11:05:04.539964
osm:node:316599444,node,316599444.0,Rainbow Caravan Park,-35.8999284,141.9898456,VIC,,,,,,,,caravan_site,osm_overpass,,,,,,,0,,,,,,,0,0,0,holiday,0.6,0,2025-09-12T11:05:04.539964
osm:way:666063985,way,666063985.0,Curlwaa Caravan Park,-34.1132597,141.9899922,NSW,,,,,https://www.curlwaacaravanpark.com.au/,+61 3 5027 6210,,caravan_site,osm_overpass,,,,,,,0,,,,6/DP807831;1/DP811028;3/DP807832;2/DP811028;4/DP811028;1/DP807832;2/DP807832;2/DP1170076,339475.31,nsw_dcdb,0,0,0,holiday,0.6,0,2025-09-12T11:05:04.539964
osm:node:1808392041,node,1808392041.0,Otit Campground,-35.72778,141.99167,VIC,,,,,,,,camp_site,osm_overpass,,,,,,,0,,,,,,,0,0,0,camp,0.6,0,2025-09-12T11:05:04.539964
osm:way:1244906713,way,1244906713.0,Rainbow Caravan Park,-35.9051392,141.9932271,VIC,,,,,,,,camp_site,osm_overpass,,,,,,,0,,,,,,,0,0,0,holiday,0.6,0,2025-09-12T11:05:04.539964
osm:node:1808392732,node,1808392732.0,Casuarina Campground,-35.4457124,141.995588,VIC,,,,,,,,camp_site,osm_overpass,,,,,,,0,,,,,,,0,0,0,camp,0.6,0,2025-09-12T11:05:04.539964
osm:node:2302038754,node,2302038754.0,Donehue's Caravans and Boats,-37.7224795,141.9958479,VIC,,,,,,,,,osm_overpass,,,,,,,0,,,,,,,0,0,0,unknown,0.6,1,2025-09-12T11:05:04.539964
osm:node:1808393376,node,1808393376.0,Glendinning Campground,-37.2976472,141.9979555,VIC,,,,,,,,camp_site,osm_overpass,,,,,,,0,,,,,,,0,0,0,camp,0.6,0,2025-09-12T11:05:04.539964
osm:node:3369548154,node,3369548154.0,Remote Camp,-35.4799471,141.9981959,VIC,,,,,,,,camp_site,osm_overpass,,Parks Victoria,,,,,0,,,,,,,0,0,0,camp,0.6,0,2025-09-12T11:05:04.539964
osm:node:11569682042,node,11569682042.0,,-35.9170765,141.9982395,VIC,,,,,,,,camp_site,osm_overpass,,,,,,,0,,,,,,,0,0,0,camp,0.6,1,2025-09-12T11:05:04.539964
osm:way:1428530952,way,1428530952.0,Dead Horse Gully Campground,-29.4171941,142.0004059,NSW,,,,,,,,camp_site,osm_overpass,,NSW National Parks and Wildlife Service,,,,,0,,,,4285/DP767033,21765501.1,nsw_dcdb,0,0,0,camp,0.6,0,2025-09-12T11:05:04.539964
osm:node:316599513,node,316599513.0,Yaapeet Beach Campground - Lake Albacutya Regional Park,-35.7661714,142.0067479,VIC,,,,,,,,camp_site,osm_overpass,,,,,,,0,,,,,,,0,0,0,camp,0.6,0,2025-09-12T11:05:04.539964
osm:node:5472427523,node,5472427523.0,Macarthur Recreation Reserve,-38.0370201,142.0071495,VIC,,,,,,,,camp_site,osm_overpass,,,,,,,0,,,,,,,0,0,0,camp,0.6,0,2025-09-12T11:05:04.539964
osm:way:372919675,way,372919675.0,Granites Motel Caravan Park,-29.4339904,142.0090108,NSW,,,,,,,,caravan_site,osm_overpass,,,,,,,0,,,,43/DP705024;42/DP705024;41/DP705024;21/DP758976;2/DP840520;3/DP840520;9/DP758976;22/DP758976;10/DP758976;23/DP758976;24/DP758976;11/DP758976;12/DP758976;29/DP725374;21/DP756228;6/DP1317597,7179915.66,nsw_dcdb,0,0,0,holiday,0.6,0,2025-09-12T11:05:04.539964
osm:node:8520127933,node,8520127933.0,Big Bend,-36.5515694,142.0126319,VIC,,,,,,,,camp_site,osm_overpass,,,,,,,0,,,,,,,0,0,0,camp,0.6,0,2025-09-12T11:05:04.539964
osm:node:9179031762,node,9179031762.0,Wail Campsite 4,-36.5389429,142.0161484,VIC,,,,,,,,camp_site,osm_overpass,,,,,,,0,,,,,,,0,0,0,camp,0.6,0,2025-09-12T11:05:04.539964
osm:way:1428530963,way,1428530963.0,Historic Reserve Camping Ground,-29.4413897,142.0174648,NSW,,,,,,,,camp_site,osm_overpass,,Tibooburra Local Aboriginal Land Council,,,,,0,,,,24/DP756228,535404.16,nsw_dcdb,0,0,0,camp,0.6,0,2025-09-12T11:05:04.539964
osm:way:36336385,way,36336385.0,Horseshoe Bend,-36.4980557,142.0181019,VIC,,,,,,,,camp_site,osm_overpass,,,,,,,0,,,,,,,0,0,0,camp,0.6,0,2025-09-12T11:05:04.539964
osm:way:189029610,way,189029610.0,Hamilton Caravan Park,-37.7329974,142.0192101,VIC,,,,,https://www.hamiltoncaravanpark.com.au/,,,caravan_site,osm_overpass,,,,,,,0,,,,,,,0,0,0,holiday,0.6,0,2025-09-12T11:05:04.539964
osm:node:3698441597,node,3698441597.0,Wail Campsite 3,-36.5364298,142.0196167,VIC,,,,,,,,camp_site,osm_overpass,,,,,,,0,,,,,,,0,0,0,camp,0.6,0,2025-09-12T11:05:04.539964
osm:way:36336389,way,36336389.0,Ackle Bend,-36.5039381,142.0201837,VIC,,,,,,,,camp_site,osm_overpass,,,,,,,0,,,,,,,0,0,0,camp,0.6,0,2025-09-12T11:05:04.539964
osm:node:1808394747,node,1808394747.0,Walpeup Wayside Stop,-35.1359697,142.0249276,VIC,,,,,,,,camp_site,osm_overpass,,Mildura Rural City Council,,,,,0,,,,,,,0,0,0,camp,0.6,0,2025-09-12T11:05:04.539964
osm:node:9051021807,node,9051021807.0,Riverside Caravan Park,-36.4570213,142.025025,VIC,,,,,,,,caravan_site,osm_overpass,,,,,,,0,,,,,,,0,0,0,holiday,0.6,0,2025-09-12T11:05:04.539964
osm:way:954220838,way,954220838.0,Campground No1,-34.1240562,142.0283962,VIC,,,,,,,,camp_site,osm_overpass,,ParksVic,,,,,0,,,,,,,0,0,0,camp,0.6,0,2025-09-12T11:05:04.539964
osm:node:3698441584,node,3698441584.0,Wail Campsite 2,-36.5330943,142.0284798,VIC,,,,,,,,camp_site,osm_overpass,,,,,,,0,,,,,,,0,0,0,camp,0.6,0,2025-09-12T11:05:04.539964
osm:node:8831745035,node,8831745035.0,Campground No 2,-34.1245502,142.0286366,VIC,,,,,,,,camp_site,osm_overpass,,,,,,,0,,,,,,,0,0,0,camp,0.6,0,2025-09-12T11:05:04.539964
osm:way:954221496,way,954221496.0,,-34.1245296,142.0286817,VIC,,,,,,,,camp_site,osm_overpass,,,,,,,0,,,,,,,0,0,0,camp,0.6,1,2025-09-12T11:05:04.539964
osm:way:954226778,way,954226778.0,Campground No 3,-34.1277082,142.0309901,VIC,,,,,,,,camp_site,osm_overpass,,,,,,,0,,,,,,,0,0,0,camp,0.6,0,2025-09-12T11:05:04.539964
osm:way:954226233,way,954226233.0,Campground No 4,-34.1280366,142.0314721,VIC,,,,,,,,camp_site,osm_overpass,,,,,,,0,,,,,,,0,0,0,camp,0.6,0,2025-09-12T11:05:04.539964
osm:way:954227402,way,954227402.0,Campground No 5,-34.1284427,142.0320276,VIC,,,,,,,,camp_site,osm_overpass,,,,,,,0,,,,,,,0,0,0,camp,0.6,0,2025-09-12T11:05:04.539964
osm:way:954227809,way,954227809.0,Campground No 6,-34.1288639,142.0327514,VIC,,,,,,,,camp_site,osm_overpass,,,,,,,0,,,,,,,0,0,0,camp,0.6,0,2025-09-12T11:05:04.539964
osm:way:375490014,way,375490014.0,Lake Hamilton Caravan Park,-37.7431179,142.0334913,VIC,,,,,,,,caravan_site,osm_overpass,,,,,,,0,,,,,,,0,0,0,holiday,0.6,0,2025-09-12T11:05:04.539964
osm:node:9160300599,node,9160300599.0,Henry's Camp,-37.3181943,142.0367315,VIC,,,,,,,,camp_site,osm_overpass,,,,,,,0,,,,,,,0,0,0,camp,0.6,0,2025-09-12T11:05:04.539964
osm:node:11198778741,node,11198778741.0,Cavendish Recreation Reserve,-37.5224035,142.0438499,VIC,,,,,,,,camp_site,osm_overpass,,,,,,,0,,,,,,,0,0,0,camp,0.6,0,2025-09-12T11:05:04.539964
osm:way:228626856,way,228626856.0,Cavendish Recreation Reserve,-37.5216443,142.0440577,VIC,,,,,,,,camp_site,osm_overpass,,,,,,,0,,,,,,,0,0,0,camp,0.6,0,2025-09-12T11:05:04.539964
osm:node:1365333313,node,1365333313.0,Wonga Campground,-35.5852695,142.047404,VIC,,,,,,,,camp_site,osm_overpass,,,,,,,0,,,,,,,0,0,0,camp,0.6,0,2025-09-12T11:05:04.539964
osm:way:175563775,way,175563775.0,Merbein Caravan Park,-34.165566,142.0505012,VIC,,,,,,,,caravan_site,osm_overpass,,,,,,,0,,,,,,,0,0,0,holiday,0.6,0,2025-09-12T11:05:04.539964
osm:node:1808392211,node,1808392211.0,Wonga Campground,-35.58667,142.05056,VIC,,,,,,,,camp_site,osm_overpass,,,,,,,0,,,,,,,0,0,0,camp,0.6,0,2025-09-12T11:05:04.539964
osm:node:316599502,node,316599502.0,Wonga Campground - Wyperfeld NP,-35.5832852,142.0534577,VIC,,,,,,,,camp_site,osm_overpass,,,,,,,0,,,,,,,0,0,0,camp,0.6,0,2025-09-12T11:05:04.539964
osm:node:1808392222,node,1808392222.0,Yambuk Caravan Park,-38.3390521,142.0542855,VIC,,,,,,,,camp_site,osm_overpass,,,,,,,0,,,,,,,0,0,0,holiday,0.6,0,2025-09-12T11:05:04.539964
osm:node:316598949,node,316598949.0,Lake Yambuk Caravan Park,-38.3396438,142.0545841,VIC,,,,,,,,caravan_site,osm_overpass,,,,,,,0,,,,,,,0,0,0,holiday,0.6,0,2025-09-12T11:05:04.539964
osm:node:1808393256,node,1808393256.0,Fergusons Campground,-37.29556,142.06,VIC,,,,,,,,camp_site,osm_overpass,,,,,,,0,,,,,,,0,0,0,camp,0.6,0,2025-09-12T11:05:04.539964
osm:node:1774623390,node,1774623390.0,,-34.1260764,142.0605385,VIC,,,,,,,,camp_site,osm_overpass,,,,,,,0,,,,,,,0,0,0,camp,0.6,1,2025-09-12T11:05:04.539964
osm:node:1774623310,node,1774623310.0,,-34.1259964,142.0622766,VIC,,,,,,,,camp_site,osm_overpass,,,,,,,0,,,,,,,0,0,0,camp,0.6,1,2025-09-12T11:05:04.539964
osm:way:1050701636,way,1050701636.0,Ramon Deed Veterans Retreat,-34.0990554,142.0632127,NSW,,,,,http://www.rdveteransretreat.com.au/,,,camp_site,osm_overpass,,,,,,,0,,,,826/DP756961;827/DP756961;3/DP853243;557/DP1217050,557638.03,nsw_dcdb,0,0,0,camp,0.6,0,2025-09-12T11:05:04.539964
osm:node:1774623327,node,1774623327.0,,-34.1504456,142.0652807,VIC,,,,,,,,camp_site,osm_overpass,,,,,,,0,,,,,,,0,0,0,camp,0.6,1,2025-09-12T11:05:04.539964
osm:node:1774623322,node,1774623322.0,,-34.1484745,142.0653023,VIC,,,,,,,,camp_site,osm_overpass,,,,,,,0,,,,,,,0,0,0,camp,0.6,1,2025-09-12T11:05:04.539964
osm:node:1774623357,node,1774623357.0,,-34.1465699,142.0653853,VIC,,,,,,,,camp_site,osm_overpass,,,,,,,0,,,,,,,0,0,0,camp,0.6,1,2025-09-12T11:05:04.539964
osm:node:1774623351,node,1774623351.0,,-34.1512846,142.0655865,VIC,,,,,,,,camp_site,osm_overpass,,,,,,,0,,,,,,,0,0,0,camp,0.6,1,2025-09-12T11:05:04.539964
osm:node:1774623368,node,1774623368.0,,-34.1518329,142.0657849,VIC,,,,,,,,camp_site,osm_overpass,,,,,,,0,,,,,,,0,0,0,camp,0.6,1,2025-09-12T11:05:04.539964
osm:node:1774623354,node,1774623354.0,,-34.1447052,142.0665413,VIC,,,,,,,,camp_site,osm_overpass,,,,,,,0,,,,,,,0,0,0,camp,0.6,1,2025-09-12T11:05:04.539964
osm:node:1774623335,node,1774623335.0,,-34.1532224,142.0669463,VIC,,,,,,,,camp_site,osm_overpass,,,,,,,0,,,,,,,0,0,0,camp,0.6,1,2025-09-12T11:05:04.539964
osm:node:1774623364,node,1774623364.0,,-34.1275684,142.0671797,VIC,,,,,,,,camp_site,osm_overpass,,,,,,,0,,,,,,,0,0,0,camp,0.6,1,2025-09-12T11:05:04.539964
osm:node:1811166955,node,1811166955.0,Combo Waterhole Conservation Park,-21.60111,142.06806,QLD,,,,,,,,camp_site,osm_overpass,,,,,,,0,,,,10CP892841,227600.0,qld_dcdb,0,0,1,camp,0.6,0,2025-09-12T11:05:04.539964
osm:node:1774623384,node,1774623384.0,,-34.1540325,142.068376,VIC,,,,,,,,camp_site,osm_overpass,,,,,,,0,,,,,,,0,0,0,camp,0.6,1,2025-09-12T11:05:04.539964
osm:node:1774623341,node,1774623341.0,Merbein Common - River Access 8,-34.1543721,142.0692316,VIC,,,,,,,,camp_site,osm_overpass,,Parks Victoria,,,,,0,,,,,,,0,0,0,camp,0.6,0,2025-09-12T11:05:04.539964
osm:node:1774623349,node,1774623349.0,,-34.1428783,142.0700818,VIC,,,,,,,,camp_site,osm_overpass,,,,,,,0,,,,,,,0,0,0,camp,0.6,1,2025-09-12T11:05:04.539964
osm:node:1774623315,node,1774623315.0,Merbein Common - River Access 7,-34.1547806,142.0709884,VIC,,,,,,,,camp_site,osm_overpass,,Parks Victoria,,,,,0,,,,,,,0,0,0,camp,0.6,0,2025-09-12T11:05:04.539964
osm:node:8285387776,node,8285387776.0,Rom's Bog,-37.2852401,142.0729004,VIC,,,,,,,,camp_site,osm_overpass,,,,,,,0,,,,,,,0,0,0,camp,0.6,0,2025-09-12T11:05:04.539964
osm:node:1808391879,node,1808391879.0,Horseshoe Bend,-34.1559979,142.0757045,VIC,,,,,,,,camp_site,osm_overpass,,Parks Vicftoria,,,,,0,,,,,,,0,0,0,camp,0.6,0,2025-09-12T11:05:04.539964
osm:node:1763842185,node,1763842185.0,Merbein Common - River Access 6,-34.1568756,142.0770055,VIC,,,,,,,,camp_site,osm_overpass,,Parks Victoria,,,,,0,,,,,,,0,0,0,camp,0.6,0,2025-09-12T11:05:04.539964
osm:node:1763842206,node,1763842206.0,Merbein Common - River Access 5,-34.1575504,142.0775688,VIC,,,,,,,,camp_site,osm_overpass,,Parks Victoria,,,,,0,,,,,,,0,0,0,camp,0.6,0,2025-09-12T11:05:04.539964
osm:node:1774623392,node,1774623392.0,,-34.1355056,142.0776215,VIC,,,,,,,,camp_site,osm_overpass,,,,,,,0,,,,,,,0,0,0,camp,0.6,1,2025-09-12T11:05:04.539964
osm:node:1763842244,node,1763842244.0,Merbein Common - River Access 4,-34.1614568,142.0791838,VIC,,,,,,,,camp_site,osm_overpass,,Parks Victoria,,,,,0,,,,,,,0,0,0,camp,0.6,0,2025-09-12T11:05:04.539964
osm:node:1763842241,node,1763842241.0,Merbein Common - River Access 3,-34.1618828,142.0793176,VIC,,,,,,,,camp_site,osm_overpass,,Parks Victoria,,,,,0,,,,,,,0,0,0,camp,0.6,0,2025-09-12T11:05:04.539964
osm:node:1763842247,node,1763842247.0,Merbein Common - River Access 3,-34.1634585,142.0800043,VIC,,,,,,,,camp_site,osm_overpass,,Parks Victoria,,,,,0,,,,,,,0,0,0,camp,0.6,0,2025-09-12T11:05:04.539964
osm:node:1763842211,node,1763842211.0,Merbein Common - River Access 1,-34.1644839,142.0804334,VIC,,,,,,,,camp_site,osm_overpass,,Parks Victoria,,,,,0,,,,,,,0,0,0,camp,0.6,0,2025-09-12T11:05:04.539964
osm:node:316599468,node,316599468.0,Mountain Dam Campground - Rocklands Reservoir,-37.224187,142.0865758,VIC,,,,,,,,camp_site,osm_overpass,,,,,,,0,,,,,,,0,0,0,camp,0.6,0,2025-09-12T11:05:04.539964
osm:node:1808392006,node,1808392006.0,Mountain Dam Campground,-37.2275,142.08778,VIC,,,,,,,,camp_site,osm_overpass,,,,,,,0,,,,,,,0,0,0,camp,0.6,0,2025-09-12T11:05:04.539964
osm:way:532708135,way,532708135.0,Sun Siesta Caravan Park,-34.2337055,142.0950066,VIC,,,,,,,,caravan_site,osm_overpass,,,,,,,0,,,,,,,0,0,0,holiday,0.6,0,2025-09-12T11:05:04.539964
osm:way:532708127,way,532708127.0,Sun Siesta Caravan Park access road,-34.2338041,142.0951529,VIC,,,,,,,,,osm_overpass,,,,,,,0,,,,,,,0,0,0,unknown,0.6,1,2025-09-12T11:05:04.539964
osm:way:908329153,way,908329153.0,Sun Siesta Caravan Park access road,-34.2322247,142.097289,VIC,,,,,,,,,osm_overpass,,,,,,,0,,,,,,,0,0,0,unknown,0.6,1,2025-09-12T11:05:04.539964
osm:way:342960193,way,342960193.0,Sunrasia Holiday Park,-34.228769,142.098142,VIC,,,,,,,,caravan_site,osm_overpass,,,,,,,0,,,,,,,0,0,0,holiday,0.6,0,2025-09-12T11:05:04.539964
osm:node:1808392142,node,1808392142.0,Tarrington Town Park,-37.76639,142.09833,VIC,,,,,,,,camp_site,osm_overpass,,,,,,,0,,,,,,,0,0,0,camp,0.6,0,2025-09-12T11:05:04.539964
osm:node:1808392181,node,1808392181.0,Wail Picnic Area,-36.5094623,142.1033806,VIC,,,,,,,,camp_site,osm_overpass,,,,,,,0,,,,,,,0,0,0,camp,0.6,0,2025-09-12T11:05:04.539964
osm:node:1808391885,node,1808391885.0,Hynes Reserve Camping Area,-37.22472,142.105,VIC,,,,,,,,camp_site,osm_overpass,,,,,,,0,,,,,,,0,0,0,camp,0.6,0,2025-09-12T11:05:04.539964
osm:way:72978084,way,72978084.0,BIG4 NRMA Mildura Riverside Holiday Park,-34.1742484,142.1236129,VIC,199 - 205,Flora Avenue,Mildura,3500.0,https://www.big4.com.au/caravan-parks/vic/murray/mildura-golden-river-holiday-park,+61 3 5021 2299,,caravan_site,osm_overpass,Big 4 Holiday Parks,,BIG4,BIG4 Holiday Parks,https://www.big4.com.au/caravan-parks/vic/murray/mildura-golden-river-holiday-park,,0,,,,,,,0,0,0,holiday,0.6,0,2025-09-12T11:05:04.539964
osm:node:2204180453,node,2204180453.0,Vrilya Point South Campground,-11.2404971,142.1259834,QLD,,,,,,,,camp_site,osm_overpass,,,,,,,0,,,,7024MP41159,,,0,0,1,camp,0.6,0,2025-09-12T11:05:04.539964
osm:node:2204180415,node,2204180415.0,Vrilya Point North Campground,-11.2154866,142.1349307,QLD,,,,,,,,camp_site,osm_overpass,,,,,,,0,,,,102SP120089,710600000.0,qld_dcdb,0,0,1,camp,0.6,0,2025-09-12T11:05:04.539964
osm:way:679732684,way,679732684.0,BIG4 Mildura Getaway - Holiday Park Mildura,-34.2082318,142.1363217,VIC,,,,,,,,caravan_site,osm_overpass,Big 4 Holiday Parks,,BIG4,BIG4 Holiday Parks,,,0,,,,,,,0,0,0,holiday,0.6,0,2025-09-12T11:05:04.539964
osm:node:1808391948,node,1808391948.0,Lake Walpeup Reserve Camping Area,-35.1977531,142.1378043,VIC,,,,3490.0,,,,camp_site,osm_overpass,,,,,,,0,,,,,,,0,0,0,camp,0.6,0,2025-09-12T11:05:04.539964
osm:node:6497011529,node,6497011529.0,Caravan Parking,-34.137448,142.1468917,NSW,,,,,,,,,osm_overpass,,,,,,,0,,,,1170/DP820161,1566767.4,nsw_dcdb,0,0,0,unknown,0.6,1,2025-09-12T11:05:04.539964
osm:node:2203978477,node,2203978477.0,Vrilya Point North Campground,-11.1344589,142.1506454,QLD,,,,,,,,camp_site,osm_overpass,,,,,,,0,,,,102SP120089,710600000.0,qld_dcdb,0,0,1,camp,0.6,0,2025-09-12T11:05:04.539964
osm:way:1065763278,way,1065763278.0,Apex RiverBeach Holiday Park,-34.1537535,142.1635147,VIC,435,Cureton Avenue,Mildura,3500.0,https://www.apexriverbeach.com.au/,+61 3 5023 6879,holiday@apexriverbeach.com.au,caravan_site,osm_overpass,,,,,,,0,,,,,,,0,0,0,holiday,0.6,0,2025-09-12T11:05:04.539964
osm:way:663113063,way,663113063.0,Buronga Riverside Tourist Park,-34.1806024,142.1681561,NSW,71A,Caravan Park Road,Buronga,2739.0,http://www.burongacaravanpark.com.au/,+61 3 5023 3040,info@burongacaravanpark.com.au,caravan_site,osm_overpass,,,,,,,0,,,,2136/DP765238;102/DP1232718;101/DP1232718,126815.67,nsw_dcdb,0,0,0,holiday,0.6,0,2025-09-12T11:05:04.539964
osm:way:200359131,way,200359131.0,Caravan Park Road,-34.1799483,142.1721309,NSW,,,,,,,,,osm_overpass,,,,,,,0,,,,201/DP1252696,580641.81,nsw_dcdb,0,0,0,unknown,0.6,1,2025-09-12T11:05:04.539964
osm:way:222128871,way,222128871.0,Coachman Tourist Park,-34.2377145,142.1744661,VIC,2163,Fifteenth Street,Irymple,3498.0,,,,,osm_overpass,,,,,,,0,,,,,,,0,0,0,unknown,0.6,1,2025-09-12T11:05:04.539964
osm:way:555334793,way,555334793.0,Sun city Caravan Park,-34.193754,142.1859049,VIC,,,,,,,,caravan_site,osm_overpass,,,,,,,0,,,,,,,0,0,0,holiday,0.6,0,2025-09-12T11:05:04.539964
osm:node:1808391772,node,1808391772.0,Cherrypool Highway Park,-37.10806,142.18722,VIC,,,,,,,,camp_site,osm_overpass,,,,,,,0,,,,,,,0,0,0,camp,0.6,0,2025-09-12T11:05:04.539964
osm:way:555158499,way,555158499.0,BIG4 Red Cliffs Caravan Park,-34.2972721,142.1876537,VIC,,,,,,,,caravan_site,osm_overpass,Big 4 Holiday Parks,,BIG4,BIG4 Holiday Parks,,,0,,,,,,,0,0,0,holiday,0.6,0,2025-09-12T11:05:04.539964
osm:way:163592301,way,163592301.0,Oval 2 (Caravan Park),-34.2988211,142.187751,VIC,,,,,,,,,osm_overpass,,,,,,,0,,,,,,,0,0,0,unknown,0.6,1,2025-09-12T11:05:04.539964
osm:way:295319541,way,295319541.0,The Palms Caravan Park,-34.1977737,142.1883348,VIC,,,,,,+61 3 5023 1774,,caravan_site,osm_overpass,,,,,,,0,,,,,,,0,0,0,holiday,0.6,0,2025-09-12T11:05:04.539964
osm:way:142127349,way,142127349.0,Horsham Riverside Caravan Park,-36.7232733,142.1981315,VIC,,,,,,,,caravan_site,osm_overpass,,,,,,,0,,,,,,,0,0,0,holiday,0.6,0,2025-09-12T11:05:04.539964
osm:way:984670877,way,984670877.0,Rivergardens Holiday Park,-34.1802325,142.2101963,NSW,,Punt Road,Gol Gol,2738.0,https://rivergardensholidaypark.com.au/,+61 3 5024 8541,,caravan_site,osm_overpass,,,,,,,0,,,,3/DP631109;4/DP631109;4/DP808321;1/DP600032;1/DP808321;1/DP592747;1/DP592041;2/DP594929;2/DP1068548;10/DP1280364;8/DP1280364;11/DP1280364;9/DP1280364;7/DP1280364;6/DP1280364;1/DP1280364;2/DP1280364,95273.8,nsw_dcdb,0,0,0,holiday,0.6,0,2025-09-12T11:05:04.539964
osm:way:947742155,way,947742155.0,Wimmera Lakes,-36.7446084,142.2173987,VIC,,,,,,,,caravan_site,osm_overpass,,,,,,,0,,,,,,,0,0,0,holiday,0.6,0,2025-09-12T11:05:04.539964
osm:way:1418181331,way,1418181331.0,York Downs Station Donation Camp,-12.6509325,142.220107,QLD,,,,,,,,camp_site,osm_overpass,,,,,,,0,,,,1SP304678,1300000000.0,qld_dcdb,0,0,1,camp,0.6,0,2025-09-12T11:05:04.539964
osm:node:2204180333,node,2204180333.0,Mutee Head South Campground,-10.9240128,142.2221278,QLD,,,,,,,,camp_site,osm_overpass,,,,,,,0,,,,102SP120089,710600000.0,qld_dcdb,0,0,1,camp,0.6,0,2025-09-12T11:05:04.539964
osm:node:1811183578,node,1811183578.0,Little Topar Roadhouse,-31.7801552,142.2264107,NSW,,,,,,,,camp_site,osm_overpass,,,,,,,0,,,,1007/DP762188;5051/DP45072;2/DP756119;1299/DP762975,327945056.22,nsw_dcdb,0,0,0,camp,0.6,0,2025-09-12T11:05:04.539964
osm:node:8920846465,node,8920846465.0,Poddys Creek Rest Area,-22.214191,142.2308353,QLD,,,,,,,,camp_site,osm_overpass,,,,,,,0,,,,4721SP309912,237200000.0,qld_dcdb,0,0,1,camp,0.6,0,2025-09-12T11:05:04.539964
osm:way:845235939,way,845235939.0,,-38.3749343,142.2316247,VIC,,,,,,,,caravan_site,osm_overpass,,,,,,,0,,,,,,,0,0,0,holiday,0.6,1,2025-09-12T11:05:04.539964
osm:node:1808392073,node,1808392073.0,Psyche Bends,-34.2513462,142.2331296,VIC,,,,,,,,camp_site,osm_overpass,,,,,,,0,,,,,,,0,0,0,camp,0.6,0,2025-09-12T11:05:04.539964
osm:node:1811188033,node,1811188033.0,Mount Wood Campground,-29.48417,142.235,NSW,,,,,https://www.nationalparks.nsw.gov.au/camping-and-accommodation/campgrounds/mount-wood-campground,,,camp_site,osm_overpass,,,,,,,0,,,nsw_area_error:RetryError[<Future at 0x109075bd0 state=finished raised ConnectionError>],,,,1,0,0,camp,0.6,0,2025-09-12T11:05:04.539964
osm:way:46706940,way,46706940.0,Southcombe By The Sea Caravan Park,-38.3907912,142.2361928,VIC,,,,,,,,caravan_site,osm_overpass,,,,,,,0,,,,,,,0,0,0,holiday,0.6,0,2025-09-12T11:05:04.539964
osm:node:12944080102,node,12944080102.0,Mount Wood campground,-29.4803297,142.2372007,NSW,,,,,,,,camp_site,osm_overpass,,NSW NPWS,,,,,0,,,nsw_area_error:RetryError[<Future at 0x1092ff350 state=finished raised ConnectionError>],,,,1,0,0,camp,0.6,0,2025-09-12T11:05:04.539964
osm:way:189986742,way,189986742.0,Gardens By East Beach Caravan Park,-38.3780746,142.2411982,VIC,111,Griffiths Street,Port Fairy,3284.0,https://www.portfairycaravanparks.com/,+61 3 5568 1060,,caravan_site,osm_overpass,,,,,,,0,,,,,,,0,0,0,holiday,0.6,0,2025-09-12T11:05:04.539964
osm:way:305672644,way,305672644.0,Gum Tree Caravan Park,-38.3566746,142.2414433,VIC,,,,,,,,caravan_site,osm_overpass,,,,,,,0,,,,,,,0,0,0,holiday,0.6,0,2025-09-12T11:05:04.539964
osm:node:2713421317,node,2713421317.0,Port Fairy Gardens Caravan Park,-38.3789283,142.2415349,VIC,,,,,https://www.portfairycaravanparks.com/,+61 3 5568 1060,gardens@portfairycaravanparks.com,caravan_site,osm_overpass,,,,,,,0,,,,,,,0,0,0,holiday,0.6,0,2025-09-12T11:05:04.539964
osm:way:961227562,way,961227562.0,Freedom Campimg by Permit,-18.2130769,142.2425966,QLD,,,,,,,,camp_site,osm_overpass,,Croydon Shire Coucil,,,,,0,,,,952SP178689;18C3593,21888350.0,qld_dcdb,0,0,1,camp,0.6,0,2025-09-12T11:05:04.539964
osm:node:316587690,node,316587690.0,Trentham Cliffs Caravan Village,-34.2249555,142.2458364,NSW,,,,,,,,caravan_site,osm_overpass,,,,,,,0,,,,71/DP814699;1/DP1267913;2/DP1267913,559666.53,nsw_dcdb,0,0,0,built_community,0.6,0,2025-09-12T11:05:04.539964
osm:way:961227570,way,961227570.0,Croydon Caravan Park,-18.2018861,142.2458484,QLD,,,,,,,,camp_site,osm_overpass,,,,,,,0,,,,1MPH22485;19MPH22302;20MPH22302;21MPH22302;2MPH22302;16CP903613;24SP137323;19C35912;18MPH22367;3MPH22483;729SY28;145SP340508,41733.0,qld_dcdb,0,0,1,holiday,0.6,0,2025-09-12T11:05:04.539964
osm:node:1811199673,node,1811199673.0,Trentham Cliffs Caravan Village,-34.22472,142.24722,NSW,,,,,,,,camp_site,osm_overpass,,,,,,,0,,,nsw_area_error:RetryError[<Future at 0x1094f7750 state=finished raised ConnectionError>],,,,1,0,0,built_community,0.6,0,2025-09-12T11:05:04.539964
osm:way:1421746054,way,1421746054.0,Cawndilla Campground,-32.4349271,142.2515452,NSW,,,,,,,,camp_site,osm_overpass,,NSW National Parks and Wildlife Service,,,,,0,,,nsw_area_error:RetryError[<Future at 0x10951c350 state=finished raised ConnectionError>],,,,1,0,0,camp,0.6,0,2025-09-12T11:05:04.539964
osm:node:2204180298,node,2204180298.0,Mutee Head Campground,-10.9122479,142.2523758,QLD,,,,,,,,camp_site,osm_overpass,,,,,,,0,,,,102SP120089,710600000.0,qld_dcdb,0,0,1,camp,0.6,0,2025-09-12T11:05:04.539964
osm:node:12769617864,node,12769617864.0,Hazelvale,-31.7655579,142.2647246,NSW,11552,Barrier Highway,Little Topar,2880.0,https://hazelvalecampgrounds.com.au/,+61 4 8891 9493,hazelvalestn@outlook.com,camp_site,osm_overpass,,,,,,,0,,,nsw_area_error:RetryError[<Future at 0x10951dc50 state=finished raised ConnectionError>],,,,1,0,0,camp,0.6,0,2025-09-12T11:05:04.539964
osm:node:1808393397,node,1808393397.0,Hattah North Rest Area,-34.74194,142.27167,VIC,,,,,,,,camp_site,osm_overpass,,,,,,,0,,,,,,,0,0,0,camp,0.6,0,2025-09-12T11:05:04.539964
osm:way:951339098,way,951339098.0,Buandik Campground,-37.252862,142.2782151,VIC,,,,,,,,camp_site,osm_overpass,,Parks Victoria,,,,,0,,,,,,,0,0,0,camp,0.6,0,2025-09-12T11:05:04.539964
osm:node:562571155,node,562571155.0,Strachans Campground,-37.3760034,142.2821982,VIC,,,,,,,,camp_site,osm_overpass,,Parks Victoria,,,,,0,,,,,,,0,0,0,camp,0.6,0,2025-09-12T11:05:04.539964
osm:way:865883053,way,865883053.0,,-11.1043015,142.2823867,QLD,,,,,,,,camp_site,osm_overpass,,,,,,,0,,,,102SP120089,710600000.0,qld_dcdb,0,0,1,camp,0.6,1,2025-09-12T11:05:04.539964
osm:node:1811179303,node,1811179303.0,Jardine River Ferry Campground & Servic,-11.10389,142.28306,QLD,,,,,,,,camp_site,osm_overpass,,,,,,,0,,,,102SP120089;102SP120089,1421200000.0,qld_dcdb,0,0,1,camp,0.6,0,2025-09-12T11:05:04.539964
osm:node:1808392048,node,1808392048.0,Penshurst Caravan Park,-37.8729111,142.289978,VIC,,,,,,+61 3 5576 5220,,camp_site,osm_overpass,,,,,,,0,,,,,,,0,0,0,holiday,0.6,0,2025-09-12T11:05:04.539964
osm:node:3266400988,node,3266400988.0,Stockyard Camp Ground,-34.2914858,142.2930563,NSW,,,,,,,,camp_site,osm_overpass,,,,,,,0,,,nsw_area_error:RetryError[<Future at 0x109558950 state=finished raised ConnectionError>],,,,1,0,0,camp,0.6,0,2025-09-12T11:05:04.539964
osm:node:1490233503,node,1490233503.0,The Oasis Hiker Camp,-37.3047839,142.2939548,VIC,,,,,,,,camp_site,osm_overpass,,,,,,,0,,,,,,,0,0,0,camp,0.6,0,2025-09-12T11:05:04.539964
osm:way:240323766,way,240323766.0,Homestead Creek Camp Site,-31.2826238,142.2955386,NSW,,,,,https://www.nationalparks.nsw.gov.au/camping-and-accommodation/campgrounds/Homestead-Creek-campground,,,camp_site,osm_overpass,,,,,,,0,,,nsw_area_error:RetryError[<Future at 0x1092ff1d0 state=finished raised ConnectionError>],,,,1,0,0,camp,0.6,0,2025-09-12T11:05:04.539964
osm:node:1811163239,node,1811163239.0,Bottle Bend Forest Picnic Area,-34.30333,142.29861,NSW,,,,,,,,camp_site,osm_overpass,,,,,,,0,,,,63/DP822044,23950562.99,nsw_dcdb,0,0,0,camp,0.6,0,2025-09-12T11:05:04.539964
osm:node:1490233468,node,1490233468.0,Fortress Cave Bush Camp,-37.3111959,142.3055666,VIC,,,,,,,,camp_site,osm_overpass,,,,,,,0,,,,,,,0,0,0,camp,0.6,0,2025-09-12T11:05:04.539964
osm:node:1808391913,node,1808391913.0,Killarney Beach Camping Reserve,-38.35528,142.30778,VIC,,,,,,,,camp_site,osm_overpass,,,,,,,0,,,,,,,0,0,0,camp,0.6,0,2025-09-12T11:05:04.539964
osm:node:9465649135,node,9465649135.0,Horsetailer Waterhole,-13.4094772,142.3135364,QLD,,,,,,,,camp_site,osm_overpass,,,,,,,0,,,,22SP241397,743900000.0,qld_dcdb,0,0,1,camp,0.6,0,2025-09-12T11:05:04.539964
osm:node:9465649215,node,9465649215.0,Goveners Waterhole,-13.4379077,142.3137563,QLD,,,,,,,,camp_site,osm_overpass,,,,,,,0,,,,1SP241397;01SP241397,1779200000.0,qld_dcdb,0,0,1,camp,0.6,0,2025-09-12T11:05:04.539964
osm:node:4425653690,node,4425653690.0,Freshwater Lake Campground,-37.5859568,142.3187149,VIC,,,,,,,,camp_site,osm_overpass,,,,,,,0,,,,,,,0,0,0,camp,0.6,0,2025-09-12T11:05:04.539964
osm:node:1808393879,node,1808393879.0,Mt Sturgeon Rest Area,-37.654108,142.3198826,VIC,,,,,,,,camp_site,osm_overpass,,,,,,,0,,,,,,,0,0,0,camp,0.6,0,2025-09-12T11:05:04.539964
osm:way:228351082,way,228351082.0,Ouyen Caravan Park,-35.0741732,142.3203248,VIC,,,,,,+61 3 9998 4409,,camp_site,osm_overpass,,,,,,,0,,,,,,,0,0,0,holiday,0.6,0,2025-09-12T11:05:04.539964
osm:node:1808391721,node,1808391721.0,,-35.07333,142.32056,VIC,,,,,,,,camp_site,osm_overpass,,,,,,,0,,,,,,,0,0,0,camp,0.6,1,2025-09-12T11:05:04.539964
osm:node:4718113390,node,4718113390.0,Hawkesdale Campsite,-38.1042458,142.3212522,VIC,,,,,,,,camp_site,osm_overpass,,,,,,,0,,,,,,,0,0,0,camp,0.6,0,2025-09-12T11:05:04.539964
osm:node:6695061940,node,6695061940.0,,-37.086409,142.3289724,VIC,,,,,,,,camp_site,osm_overpass,,,,,,,0,,,,,,,0,0,0,camp,0.6,1,2025-09-12T11:05:04.539964
osm:node:421435656,node,421435656.0,Emu Holiday Park,-37.0614178,142.3320486,VIC,,,,,,,,hotel,osm_overpass,,,,,,,0,,,,,,,0,0,0,unknown,0.6,1,2025-09-12T11:05:04.539964
osm:node:316598091,node,316598091.0,Lake Mournpall Campground - Hattah-Kulkyne NP,-34.7046476,142.3357828,VIC,,,,,,,,camp_site,osm_overpass,,,,,,,0,,,,,,,0,0,0,camp,0.6,0,2025-09-12T11:05:04.539964
osm:node:2640847324,node,2640847324.0,Mount Thackeray Hiker Camp,-37.2958311,142.3368671,VIC,,,,,,,,camp_site,osm_overpass,,,,,,,0,,,,,,,0,0,0,camp,0.6,0,2025-09-12T11:05:04.539964
osm:node:1808392087,node,1808392087.0,Rosedale Picnic Area,-37.03333,142.34111,VIC,,,,,,,,camp_site,osm_overpass,,,,,,,0,,,,,,,0,0,0,camp,0.6,0,2025-09-12T11:05:04.539964
osm:node:316598097,node,316598097.0,Lake Hattah Campground - Hattah-Kulkyne NP,-34.7529099,142.3430789,VIC,,,,,,,,camp_site,osm_overpass,,,,,,,0,,,,,,,0,0,0,camp,0.6,0,2025-09-12T11:05:04.539964
osm:way:552001616,way,552001616.0,Nangiloc Caravan Park,-34.456108,142.3432921,VIC,,,,,http://www.nangiloccaravanpark.com.au/,,,caravan_site,osm_overpass,,,,,,,0,,,,,,,0,0,0,holiday,0.6,0,2025-09-12T11:05:04.539964
osm:way:675559514,way,675559514.0,Dunkeld Caravan Park,-37.649062,142.3455254,VIC,58-68,Parker Street,Dunkeld,3294.0,https://dunkeldcaravanpark.com,+61 409 942 578,,caravan_site,osm_overpass,,,,,,,0,,,,,,,0,0,0,holiday,0.6,0,2025-09-12T11:05:04.539964
osm:way:1421746077,way,1421746077.0,Emu Lake Campground,-32.4704185,142.3469793,NSW,,,,,,,,camp_site,osm_overpass,,NSW National Parks and Wildlife Service,,,,,0,,,nsw_area_error:RetryError[<Future at 0x10951dc50 state=finished raised ConnectionError>],,,,1,0,0,camp,0.6,0,2025-09-12T11:05:04.539964
osm:way:867674936,way,867674936.0,Alau Beach Campgrounds,-10.8857845,142.3470995,QLD,1,Mooka Road,,,https://www.nparc.qld.gov.au/accomm,+61 7 4069 3029,,camp_site,osm_overpass,,,,,,,0,,,,212SP273362;137SP273362,486620.0,qld_dcdb,0,0,1,camp,0.6,0,2025-09-12T11:05:04.539964
osm:node:2204180625,node,2204180625.0,,-10.8908974,142.3504288,QLD,,,,,,,,caravan_site,osm_overpass,,,,,,,0,,,,16SP273357;3SP273357;5SP273357;70SP273357;71SP273357;200SP273357;4SP273357;207SP273362;58SP323446;68SP273357;30SP273357;1SP273362;13SP273357;17SP273357;15SP273357;20SP273357;21SP273357;23SP273357;2SP273357;25SP273357;26SP273357;150SP273357;151SP273357;34SP273357;201SP273357;159SP292855;158SP292855;69SP273357;74SP273357;33SP273357;12SP273357;19SP273357;152SP273357;157SP292855;22SP273357;72SP273357,46928375.0,qld_dcdb,0,0,1,holiday,0.6,1,2025-09-12T11:05:04.539964
osm:node:9360480533,node,9360480533.0,Mud-Dadjug Hike-in Campground,-37.6032774,142.3507092,VIC,,,,,,,,camp_site,osm_overpass,,Parks Victoria,,,,,0,,,,,,,0,0,0,camp,0.6,0,2025-09-12T11:05:04.539964
osm:node:3768714641,node,3768714641.0,Grampians Retreat,-37.6146712,142.3551754,VIC,,,,,,,,camp_site,osm_overpass,,,,,,,0,,,,,,,0,0,0,camp,0.6,0,2025-09-12T11:05:04.539964
osm:way:551157787,way,551157787.0,,-34.5445998,142.3617052,VIC,,,,,,,,camp_site,osm_overpass,,,,,,,0,,,,,,,0,0,0,camp,0.6,1,2025-09-12T11:05:04.539964
osm:node:1808392121,node,1808392121.0,Spences Bend,-34.4455744,142.3634065,NSW,,,,,,,,camp_site,osm_overpass,,,,,,,0,,,nsw_area_error:RetryError[<Future at 0x10951c3d0 state=finished raised ConnectionError>],,,,1,0,0,camp,0.6,0,2025-09-12T11:05:04.539964
osm:node:1808391877,node,1808391877.0,Hopetoun Rest Area,-35.7225,142.36472,VIC,,,,,,,,camp_site,osm_overpass,,,,,,,0,,,,,,,0,0,0,camp,0.6,0,2025-09-12T11:05:04.539964
osm:node:1808391876,node,1808391876.0,Hopetoun Caravan Park,-35.72611,142.36694,VIC,,,,,,,,camp_site,osm_overpass,,,,,,,0,,,,,,,0,0,0,holiday,0.6,0,2025-09-12T11:05:04.539964
osm:node:1811194555,node,1811194555.0,Seisia Holiday Park,-10.8475,142.36806,QLD,,,,,,,,camp_site,osm_overpass,,,,,,,0,,,,111SP279526;224SP273364;224SP273364;224SP273364;223SP273364;225SP273364;220SP273364;65SP273364;222SP273359;110SP279526;224SP273364;223SP273364;182SP273364;226SP273364;181SP273364;180SP273364,768487.0,qld_dcdb,0,0,1,camp,0.6,0,2025-09-12T11:05:04.539964
osm:way:727932813,way,727932813.0,Koroit-Tower Hill Caravan Park,-38.2970066,142.3684821,VIC,,,,,,,,caravan_site,osm_overpass,,,,,,,0,,,,,,,0,0,0,holiday,0.6,0,2025-09-12T11:05:04.539964
osm:way:867750078,way,867750078.0,,-10.8465251,142.3688663,QLD,,,,,,,,camp_site,osm_overpass,,,,,,,0,,,,224SP273364;224SP273364;65SP273364;110SP279526;223SP273364,694849.0,qld_dcdb,0,0,1,camp,0.6,1,2025-09-12T11:05:04.539964
osm:node:9360480581,node,9360480581.0,Djardji-djawara Hike-in Campground,-37.5614514,142.3694042,VIC,,,,,,,,camp_site,osm_overpass,,Parks Victoria,,,,,0,,,,,,,0,0,0,camp,0.6,0,2025-09-12T11:05:04.539964
osm:node:2283687171,node,2283687171.0,Lake Lascelles,-35.7255279,142.3695111,VIC,,,,,,,,camp_site,osm_overpass,,,,,,,0,,,,,,,0,0,0,camp,0.6,0,2025-09-12T11:05:04.539964
osm:way:1225879631,way,1225879631.0,,-35.7253145,142.3721271,VIC,,,,,,,,camp_site,osm_overpass,,,,,,,0,,,,,,,0,0,0,camp,0.6,1,2025-09-12T11:05:04.539964
osm:node:1811162725,node,1811162725.0,Bindara On The Darling,-32.75833,142.37278,NSW,,,,,,,,camp_site,osm_overpass,,,,,,,0,,,,19/DP755403;2/DP754513;4/DP754513,3815036.32,nsw_dcdb,0,0,0,camp,0.6,0,2025-09-12T11:05:04.539964
osm:node:1808393763,node,1808393763.0,Lake Lascelles,-35.72528,142.37472,VIC,,,,,,,,camp_site,osm_overpass,,,,,,,0,,,,,,,0,0,0,camp,0.6,0,2025-09-12T11:05:04.539964
osm:node:11914706494,node,11914706494.0,Camp Sandy,-36.8980525,142.3750395,VIC,,,,,,,,camp_site,osm_overpass,,,,,,,0,,,,,,,0,0,0,camp,0.6,0,2025-09-12T11:05:04.539964
osm:node:9936536432,node,9936536432.0,Nolan's Brook Creek,-11.2071438,142.37677,QLD,,,,,,,,camp_site,osm_overpass,,,,,,,0,,,,26SP189913;026SP189913;1SP120090,7221000000.0,qld_dcdb,0,0,1,camp,0.6,0,2025-09-12T11:05:04.539964
osm:node:1808392195,node,1808392195.0,Watts Bend,-34.5320319,142.3769464,VIC,,,,,,,,camp_site,osm_overpass,,,,,,,0,,,,,,,0,0,0,camp,0.6,0,2025-09-12T11:05:04.539964
osm:node:9796014220,node,9796014220.0,Police Bend Camping Area 1,-34.4675157,142.3777445,NSW,,,,,,,,camp_site,osm_overpass,,,,,,,0,,,nsw_area_error:RetryError[<Future at 0x10951fd50 state=finished raised ConnectionError>],,,,1,0,0,camp,0.6,0,2025-09-12T11:05:04.539964
osm:relation:19452721,relation,19452721.0,Darling River Campground,-32.4315595,142.3795434,NSW,,,,,,,,camp_site,osm_overpass,,NSW National Parks and Wildlife Service,,,,,0,,,,A/DP438726;B/DP438726,693052.15,nsw_dcdb,0,0,0,camp,0.6,0,2025-09-12T11:05:04.539964
osm:way:868007370,way,868007370.0,Loyalty Beach Campground & Fishing Lodge,-10.8352547,142.3829415,QLD,,,,,,,,camp_site,osm_overpass,,,,,,,0,,,,30SP318400;47SO84,78430000.0,qld_dcdb,0,0,1,camp,0.6,0,2025-09-12T11:05:04.539964
osm:node:9796014219,node,9796014219.0,Police Bend Camping Area 2,-34.4786822,142.38296,VIC,,,,,,,,camp_site,osm_overpass,,,,,,,0,,,,,,,0,0,0,camp,0.6,0,2025-09-12T11:05:04.539964
osm:way:951339147,way,951339147.0,Stapylton Campground,-36.9236747,142.3831477,VIC,,,,,,,,camp_site,osm_overpass,,Parks Victoria,,,,,0,,,,,,,0,0,0,camp,0.6,0,2025-09-12T11:05:04.539964
osm:node:1811183737,node,1811183737.0,Loyalty Beach Campground & Fishing Lodg,-10.83472,142.38361,QLD,,,,,,,,camp_site,osm_overpass,,,,,,,0,,,,30SP318400;47SO84,78430000.0,qld_dcdb,0,0,1,camp,0.6,0,2025-09-12T11:05:04.539964
